%time,field.x,field.y,field.z,field.w
1607271205126724958,0.0643900334835,0.0759669169784,-0.992824137211,-0.0662060454488
1607271205131484985,0.0644815564156,0.075904481113,-0.992842793465,-0.0659081116319
1607271205135945081,0.0645899400115,0.075817130506,-0.992862582207,-0.0656039640307
1607271205140800952,0.0646338164806,0.0757863596082,-0.992882668972,-0.0652908682823
1607271205152765035,0.0647563710809,0.0756670460105,-0.992904126644,-0.0649808868766
1607271205152928113,0.0648886337876,0.075549595058,-0.992924690247,-0.0646709278226
1607271205155853033,0.0650336518884,0.0754411816597,-0.992944538593,-0.0643472522497
1607271205164990901,0.0651962980628,0.0753164291382,-0.992963731289,-0.0640314072371
1607271205166338920,0.06536886096,0.075202152133,-0.992982268333,-0.0637017115951
1607271205190170049,0.065522313118,0.0750827491283,-0.99300211668,-0.0633745193481
1607271205190368890,0.065650574863,0.074971690774,-0.993021428585,-0.0630683451891
1607271205190546035,0.0657240599394,0.0748530626297,-0.993043661118,-0.0627830550075
1607271205190699100,0.0657655522227,0.0747450813651,-0.993066132069,-0.0625116303563
1607271205204185962,0.0657719448209,0.0746424868703,-0.993090689182,-0.0622375607491
1607271205204345941,0.0657522156835,0.0745712220669,-0.993115484715,-0.0619470998645
1607271205204612016,0.0657255500555,0.0745294392109,-0.993136942387,-0.0616813600063
1607271205205902099,0.0657087936997,0.0745196864009,-0.993156313896,-0.0613977722824
1607271205217932939,0.0657328292727,0.0745110362768,-0.993177294731,-0.0610428117216
1607271205218250989,0.065757766366,0.0745439678431,-0.993192911148,-0.0607214905322
1607271205220858097,0.0658122599125,0.0746012255549,-0.993206262589,-0.0603723675013
1607271205229290962,0.0658757016063,0.0746630132198,-0.993218243122,-0.0600283257663
1607271205230952978,0.0659388750792,0.0747159942985,-0.9932320714,-0.0596643649042
1607271205235551118,0.0659931898117,0.0747531875968,-0.993246734142,-0.0593114458025
1607271205240741968,0.0660073906183,0.0747770890594,-0.993264257908,-0.0589705109596
1607271205247678041,0.0659915357828,0.0746976733208,-0.993289113045,-0.0586692988873
1607271205250900983,0.0659824162722,0.0746837928891,-0.993309020996,-0.0583594068885
1607271205256061077,0.0659663900733,0.0746557340026,-0.993330180645,-0.0580529645085
1607271205261487960,0.0659475922585,0.0746087580919,-0.993351578712,-0.0577682331204
1607271205265899896,0.065925039351,0.0745462179184,-0.993373155594,-0.0575030893087
1607271205270973920,0.0659191682935,0.0744630098343,-0.993394911289,-0.057240780443
1607271205281004905,0.0659474879503,0.0744246691465,-0.99340993166,-0.0569963790476
1607271205281366109,0.0659789741039,0.0743288248777,-0.993427872658,-0.0567728169262
1607271205286017894,0.0660261213779,0.0742352381349,-0.993443012238,-0.0565754920244
1607271205295264005,0.0660986304283,0.0741200447083,-0.993458032608,-0.056377902627
1607271205295942068,0.0661626830697,0.0740230828524,-0.993469834328,-0.0562224425375
1607271205300785064,0.0662487372756,0.0739178955555,-0.993480741978,-0.0560648553073
1607271205306049108,0.0663378238678,0.0738163813949,-0.993489563465,-0.0559367015958
1607271205313618898,0.0664156526327,0.0737285614014,-0.993500649929,-0.0557629577816
1607271205315808057,0.0665202885866,0.073623329401,-0.993508279324,-0.0556409060955
1607271205320801973,0.0666275694966,0.0735005959868,-0.993515193462,-0.0555516295135
1607271205328892946,0.0667125359178,0.0733947306871,-0.993522644043,-0.0554568618536
1607271205330795049,0.066814340651,0.0732712075114,-0.993530035019,-0.0553647316992
1607271205336040973,0.0669057369232,0.0731499418616,-0.993537664413,-0.0552781820297
1607271205341617107,0.067020714283,0.0730183944106,-0.993543624878,-0.0552062168717
1607271205360618114,0.067123927176,0.0728523209691,-0.993556022644,-0.0550758466125
1607271205360985040,0.0672482773662,0.072727791965,-0.993558824062,-0.0550384186208
1607271205361134052,0.0673679187894,0.0725998207927,-0.993562459946,-0.0549952685833
1607271205370214939,0.067480802536,0.0724724978209,-0.993565797806,-0.0549651943147
1607271205370621919,0.0675919055939,0.0723583251238,-0.993568241596,-0.0549344345927
1607271205370970010,0.0676943138242,0.0722401663661,-0.993570387363,-0.0549261197448
1607271205380913019,0.0678149908781,0.0721721053123,-0.993566334248,-0.0549395345151
1607271205381927013,0.0679013207555,0.0720737427473,-0.993567883968,-0.0549348555505
1607271205385982990,0.0680034980178,0.0720056295395,-0.993564486504,-0.054958704859
1607271205394258975,0.0681331753731,0.0719458684325,-0.99355918169,-0.0549717694521
1607271205395987987,0.068282969296,0.0719082653522,-0.993551135063,-0.0549809113145
1607271205400829076,0.0684487894177,0.0718611553311,-0.993542015553,-0.0550012737513
1607271205405925035,0.0686146318913,0.071857072413,-0.993529498577,-0.055025421083
1607271205413516998,0.0687802657485,0.0718092694879,-0.993522524834,-0.0550067573786
1607271205415781021,0.0689368471503,0.0718097314239,-0.993510484695,-0.0550279989839
1607271205420865058,0.0690767616034,0.0718218535185,-0.99349874258,-0.0550484843552
1607271205427753925,0.0692005679011,0.0718558058143,-0.993486225605,-0.0550742223859
1607271205430835962,0.0693277791142,0.0718988999724,-0.993473172188,-0.0550937838852
1607271205435962915,0.0694520846009,0.0719372481108,-0.993460655212,-0.055113594979
1607271205440915107,0.0695570260286,0.0719244331121,-0.99345189333,-0.0551548115909
1607271205446988105,0.0696498379111,0.0719762071967,-0.993440687656,-0.0551729127765
1607271205450877904,0.0697312951088,0.0720413923264,-0.993428707123,-0.0552003309131
1607271205456005096,0.06982537359,0.0720874294639,-0.993417143822,-0.0552296675742
1607271205461736917,0.0699372664094,0.0721444711089,-0.993403434753,-0.0552607998252
1607271205465930938,0.070055745542,0.0721913650632,-0.993389248848,-0.055302746594
1607271205470714092,0.0701665580273,0.0722559243441,-0.993374228477,-0.0553475357592
1607271205480025053,0.0702867805958,0.0723047703505,-0.993358790874,-0.0554091222584
1607271205480684995,0.0704277306795,0.0723631009459,-0.993339776993,-0.0554942116141
1607271205485944986,0.070553816855,0.0724040418863,-0.993323624134,-0.0555702485144
1607271205494143009,0.0706654116511,0.0724457576871,-0.993307471275,-0.0556629411876
1607271205495960950,0.0707693696022,0.0724852085114,-0.993290305138,-0.0557863526046
1607271205500742912,0.0708330050111,0.0725242346525,-0.993276774883,-0.0558951795101
1607271205505907058,0.0709122568369,0.0725575387478,-0.993261218071,-0.0560274198651
1607271205514179944,0.0709903538227,0.0725795924664,-0.993247628212,-0.0561399385333
1607271205515754938,0.0710866898298,0.0726069360971,-0.993230998516,-0.0562780573964
1607271205520776033,0.071191817522,0.0726245492697,-0.993214964867,-0.0564051158726
1607271205528197050,0.0713505595922,0.0726289302111,-0.993194699287,-0.0565552897751
1607271205531069993,0.0714704915881,0.0726412981749,-0.993176281452,-0.0567106157541
1607271205535927057,0.071531444788,0.072670429945,-0.993159532547,-0.0568893998861
1607271205540744066,0.0715894699097,0.0727279111743,-0.993140816689,-0.0570692047477
1607271205546787023,0.0715718641877,0.0728586614132,-0.993122160435,-0.0572485476732
1607271205550899028,0.0715900883079,0.0729903206229,-0.993098914623,-0.0574622377753
1607271205555989980,0.0715891048312,0.0731566399336,-0.993073105812,-0.0576974116266
1607271205561633110,0.0715715363622,0.0733526423573,-0.993046164513,-0.0579336434603
1607271205565937995,0.0715469717979,0.073600076139,-0.9930139184,-0.0582028031349
1607271205573890924,0.0715194642544,0.0738869905472,-0.992978215218,-0.0584797859192
1607271205580761909,0.0714962109923,0.0741936415434,-0.992939591408,-0.0587769150734
1607271205581284046,0.0715070664883,0.07447694242,-0.992899417877,-0.0590824633837
1607271205585891962,0.0714252516627,0.0748193413019,-0.992859363556,-0.0594214573503
1607271205594995021,0.0713211148977,0.075173176825,-0.992818117142,-0.0597871802747
1607271205595880031,0.071202211082,0.0755332559347,-0.992777109146,-0.0601554811001
1607271205601190090,0.0710720270872,0.0758765563369,-0.992737531662,-0.0605278834701
1607271205606466054,0.070914581418,0.0762139707804,-0.992697775364,-0.0609402135015
1607271205627468109,0.0707463249564,0.0764676555991,-0.992664158344,-0.0613648071885
1607271205627830028,0.0705325752497,0.0767599418759,-0.992629826069,-0.0617994442582
1607271205627949953,0.0703120306134,0.0770148411393,-0.992596507072,-0.0622663646936
1607271205639089107,0.0700807571411,0.0772618055344,-0.992562294006,-0.0627652928233
1607271205639462947,0.069850884378,0.0774639099836,-0.992529928684,-0.0632817596197
1607271205639583110,0.0696128830314,0.0776458308101,-0.992496788502,-0.0638386756182
1607271205640772104,0.0693487077951,0.0778097808361,-0.992464840412,-0.0644211247563
1607271205647938966,0.069086946547,0.0780206173658,-0.992428421974,-0.065004453063
1607271205650949001,0.0687447786331,0.0781797841191,-0.992397367954,-0.0656467676163
1607271205655992984,0.0683736726642,0.078328371048,-0.992367625237,-0.0663044303656
1607271205661284923,0.0679726973176,0.0784834176302,-0.992337763309,-0.0669767707586
1607271205665977001,0.0675347670913,0.0786673948169,-0.992305219173,-0.0676832720637
1607271205670834064,0.0670452862978,0.0788759663701,-0.992272794247,-0.068398617208
1607271205678827047,0.0665740817785,0.0791561603546,-0.99223035574,-0.0691459029913
1607271205680756092,0.0660093799233,0.0794104114175,-0.992194116116,-0.0699115991592
1607271205685856103,0.065471328795,0.0796739161015,-0.992154181004,-0.0706805586815
1607271205705868005,0.0649440288544,0.0799458548427,-0.992110908031,-0.071462392807
1607271205706310033,0.064470551908,0.080207824707,-0.992063581944,-0.0722509995103
1607271205706438064,0.0640601813793,0.0804504007101,-0.992011845112,-0.0730508640409
1607271205706692934,0.0637062117457,0.0806381851435,-0.991960942745,-0.0738414973021
1607271205724735021,0.0634268447757,0.0806973949075,-0.991915464401,-0.0746243596077
1607271205725096940,0.0631294697523,0.080725543201,-0.991869807243,-0.0754480361938
1607271205725214958,0.0628718435764,0.0806265473366,-0.991832971573,-0.0762489289045
1607271205733072996,0.0626339837909,0.0804202333093,-0.991805195808,-0.0770201981068
1607271205733386039,0.0623784959316,0.0801183581352,-0.991788744926,-0.0777503624558
1607271205735811948,0.0620661117136,0.0797307044268,-0.991780400276,-0.0785020515323
1607271205740871906,0.0616354681551,0.0792443081737,-0.991786241531,-0.0792559757829
1607271205746747016,0.0609238408506,0.078909792006,-0.991790294647,-0.0800854489207
1607271205751063108,0.0602270551026,0.078294955194,-0.991814255714,-0.0809141173959
1607271205755992889,0.0594456717372,0.077680952847,-0.99183768034,-0.0817916467786
1607271205761528968,0.0586248449981,0.0770583152771,-0.991860747337,-0.0826891437173
1607271205765893936,0.0577862001956,0.0764939561486,-0.991878330708,-0.0835877284408
1607271205770817041,0.0569068007171,0.0759966522455,-0.991890788078,-0.0844912454486
1607271205780010938,0.0562641322613,0.0757736340165,-0.991870105267,-0.085360378027
1607271205780880928,0.0554585680366,0.0754515007138,-0.991867125034,-0.0862034931779
1607271205786015033,0.0547002404928,0.0752398148179,-0.991856575012,-0.0869909599423
1607271205794651031,0.0540398173034,0.0751471891999,-0.991835713387,-0.0877181887627
1607271205795977115,0.0534723587334,0.0751690715551,-0.991806924343,-0.0883704945445
1607271205800682067,0.0530708655715,0.0752987638116,-0.991768658161,-0.088930003345
1607271205805929899,0.0528328679502,0.075515575707,-0.99172604084,-0.0893616080284
1607271205813622951,0.0527308806777,0.0755723789334,-0.99169075489,-0.0897647067904
1607271205815807104,0.0528757460415,0.0759569704533,-0.99163210392,-0.0900020971894
1607271205820818901,0.0531779751182,0.0764113664627,-0.991569459438,-0.0901303067803
1607271205840641975,0.0536311939359,0.0769200623035,-0.991503417492,-0.0901559442282
1607271205841008901,0.0542010441422,0.0774689465761,-0.991434395313,-0.0901035368443
1607271205841258049,0.0548340827227,0.0780400708318,-0.99136453867,-0.0899967998266
1607271205841804027,0.0554997473955,0.0786524489522,-0.99128985405,-0.0898775905371
1607271205855957984,0.0556801296771,0.078922919929,-0.991243600845,-0.0900399759412
1607271205856451988,0.0564685426652,0.0794790163636,-0.991169273853,-0.0898773148656
1607271205856864929,0.0572701357305,0.0799855962396,-0.991098999977,-0.0896954014897
1607271205863853931,0.0580791346729,0.0804623216391,-0.991026759148,-0.0895470902324
1607271205865916967,0.0588542185724,0.0808697193861,-0.990961313248,-0.0893983840942
1607271205870884895,0.0595567785203,0.0812398195267,-0.990902066231,-0.0892538502812
1607271205879585981,0.0602166727185,0.081560857594,-0.990847289562,-0.0891264677048
1607271205880666971,0.0607142150402,0.08185505867,-0.990795969963,-0.0890893116593
1607271205886065006,0.0612931139767,0.0820628479123,-0.990751922131,-0.0889919027686
1607271205905919075,0.0618157610297,0.0822163596749,-0.990713894367,-0.088912345469
1607271205906276941,0.0622882582247,0.0823126286268,-0.990680813789,-0.0888617858291
1607271205906394004,0.0627190843225,0.0823809579015,-0.990651071072,-0.088827252388
1607271205906629085,0.063057795167,0.0823987349868,-0.990629732609,-0.0888086631894
1607271205920569896,0.0634353235364,0.0825504511595,-0.990599215031,-0.088738873601
1607271205921075105,0.0636144205928,0.0825354084373,-0.990583837032,-0.0887962579727
1607271205921494960,0.0637102052569,0.0825131610036,-0.990570485592,-0.0888973921537
1607271205932394027,0.0637684687972,0.0824820399284,-0.990555465221,-0.0890514478087
1607271205932708978,0.0637754946947,0.0824433192611,-0.990542829037,-0.08922354877
1607271205935899019,0.0637037232518,0.0824085474014,-0.990529835224,-0.0894502475858
1607271205940912008,0.063541226089,0.082379065454,-0.990519046783,-0.0897124707699
1607271205949071884,0.0635013058782,0.0824690982699,-0.990497350693,-0.0898977667093
1607271205951050996,0.0631031543016,0.082462772727,-0.990489780903,-0.0902663841844
1607271205956140041,0.0626127794385,0.0824947953224,-0.99048012495,-0.090682990849
1607271205962661027,0.0620349869132,0.082531042397,-0.990473568439,-0.0911173224449
1607271205966052055,0.0613841935992,0.0825853720307,-0.990465581417,-0.0915947631001
1607271205973999023,0.060641169548,0.0826576128602,-0.990460216999,-0.092080950737
1607271205981657981,0.0601097419858,0.0827319696546,-0.990448057652,-0.0924925580621
1607271205982001066,0.0593333691359,0.0828540250659,-0.99043160677,-0.0930594950914
1607271205986017942,0.0585702955723,0.0829586982727,-0.990415632725,-0.0936181470752
1607271205996265888,0.057772770524,0.0830702409148,-0.99039888382,-0.0941901579499
1607271205996578931,0.0570063814521,0.0831525921822,-0.990381062031,-0.0947696268559
1607271206000961065,0.0562283918262,0.0832209140062,-0.990363121033,-0.0953600481153
1607271206006198883,0.0554682277143,0.0832673758268,-0.990346074104,-0.0959404408932
1607271206014646053,0.0547902956605,0.0832129791379,-0.990339457989,-0.0964442789555
1607271206015952110,0.054006729275,0.0831887871027,-0.990327835083,-0.0970243960619
1607271206021095991,0.0531950257719,0.0831222385168,-0.990319252014,-0.0976153537631
1607271206028768062,0.0523232258856,0.0830086395144,-0.990317702293,-0.0981975644827
1607271206031017065,0.051396291703,0.0828446224332,-0.990320384502,-0.0987962633371
1607271206035912036,0.0504380613565,0.0826251059771,-0.990329265594,-0.0993834659457
1607271206040918111,0.0494632162154,0.082370467484,-0.990340471268,-0.0999714061618
1607271206048726081,0.0484905987978,0.0821310281754,-0.990349292755,-0.100555472076
1607271206051009893,0.0476217567921,0.0817926079035,-0.990363299847,-0.101107425988
1607271206056058883,0.0468530617654,0.0814081579447,-0.990375161171,-0.101659432054
1607271206062339067,0.0461593642831,0.0810161978006,-0.990385830402,-0.102184832096
1607271206066195011,0.045524649322,0.0806003585458,-0.990394234657,-0.102715067565
1607271206071332931,0.0449366234243,0.0801943317056,-0.990402877331,-0.103207297623
1607271206093553066,0.044343598187,0.0799020007253,-0.990403473377,-0.103683933616
1607271206093926906,0.0439303889871,0.0795140564442,-0.990406930447,-0.104123942554
1607271206094048976,0.043615244329,0.0791604965925,-0.990403831005,-0.104554533958
1607271206104933977,0.0433943904936,0.0788568630815,-0.99039542675,-0.104954950511
1607271206105315923,0.0432368554175,0.0786061882973,-0.990382969379,-0.10532476753
1607271206105433940,0.0431559942663,0.0784140825272,-0.990363419056,-0.105683922768
1607271206105895996,0.0431288667023,0.0782882198691,-0.990339577198,-0.106011465192
1607271206119227886,0.0431868433952,0.0782293528318,-0.990310072899,-0.106306232512
1607271206119545936,0.0430848635733,0.0781830847263,-0.990282952785,-0.106633745134
1607271206121113061,0.0433363094926,0.0781920775771,-0.990245580673,-0.106872223318
1607271206130747079,0.0436396971345,0.0782221704721,-0.990208387375,-0.107070967555
1607271206131108999,0.0439838916063,0.0782834589481,-0.99017316103,-0.107211142778
1607271206135958909,0.0443525537848,0.0783677473664,-0.990136146545,-0.107339799404
1607271206140930891,0.0447303503752,0.0784312039614,-0.990105807781,-0.107416816056
1607271206145772933,0.0449150577188,0.0783019065857,-0.990094184875,-0.107541427016
1607271206150991916,0.0453620105982,0.0783457756042,-0.990071952343,-0.107525244355
1607271206156594991,0.0458175055683,0.0783947855234,-0.990052461624,-0.107476636767
1607271206161278009,0.0462952964008,0.078423909843,-0.99003726244,-0.107390709221
1607271206165841102,0.0467569418252,0.0784368664026,-0.990025818348,-0.107286334038
1607271206171091079,0.0472340621054,0.0784628987312,-0.990015089512,-0.107157252729
1607271206178800106,0.047664694488,0.078488253057,-0.989997804165,-0.107107840478
1607271206180866956,0.0481211133301,0.0785308405757,-0.989988446236,-0.106958724558
1607271206186096906,0.0485900975764,0.0785973146558,-0.989977061749,-0.106803759933
1607271206205825090,0.0490334741771,0.0786802619696,-0.989964127541,-0.106659129262
1607271206206187009,0.0494821630418,0.0787928104401,-0.989947080612,-0.106526829302
1607271206206304073,0.0499331057072,0.0789273232222,-0.989925920963,-0.106413602829
1607271206206758975,0.0504118688405,0.0790604054928,-0.989902079105,-0.106310449541
1607271206224276065,0.0509712584317,0.079193815589,-0.989871442318,-0.106230333447
1607271206224632978,0.0515052638948,0.0793338045478,-0.989837944508,-0.106180489063
1607271206224750995,0.0520303696394,0.0794845446944,-0.989802479744,-0.106142103672
1607271206231319904,0.0525651723146,0.0796251967549,-0.989765942097,-0.106113821268
1607271206231642961,0.053086169064,0.0797428116202,-0.989732325077,-0.106080055237
1607271206236016035,0.0536062605679,0.0798392742872,-0.989698112011,-0.10606507957
1607271206240935087,0.0541188791394,0.0798550769687,-0.989684760571,-0.105917185545
1607271206246315956,0.0545788295567,0.0798502638936,-0.989661753178,-0.105900093913
1607271206251107931,0.0550173744559,0.0798028409481,-0.989641785622,-0.105895116925
1607271206256237983,0.055424887687,0.0796853378415,-0.989628553391,-0.105895221233
1607271206261574983,0.0558192133904,0.079480625689,-0.989622473717,-0.105898201466
1607271206268162965,0.056166049093,0.0792165771127,-0.989620625973,-0.105930373073
1607271206271087884,0.0564443953335,0.0788820981979,-0.989628314972,-0.105959765613
1607271206294522047,0.0567496865988,0.0786050781608,-0.989633560181,-0.105953879654
1607271206294919967,0.0569082349539,0.0781808048487,-0.989651203156,-0.106017917395
1607271206295048952,0.05702502653,0.0777032747865,-0.989675045013,-0.106083996594
1607271206307317018,0.0570904575288,0.0772245228291,-0.989697039127,-0.106192208827
1607271206307708978,0.0571196563542,0.0767187848687,-0.989722192287,-0.106309078634
1607271206307823896,0.0571159571409,0.0762103721499,-0.989747464657,-0.106441177428
1607271206307924985,0.057097364217,0.0757019966841,-0.989773392677,-0.106572583318
1607271206317161083,0.0572723858058,0.0753449350595,-0.989778399467,-0.106684960425
1607271206317467927,0.0572573281825,0.0748531371355,-0.989801883698,-0.106821551919
1607271206321652889,0.0572203248739,0.074368648231,-0.989824831486,-0.106966994703
1607271206340112924,0.0571665391326,0.0739048197865,-0.989847302437,-0.107109665871
1607271206340492010,0.057121321559,0.0734321027994,-0.989871740341,-0.107232682407
1607271206340756893,0.0570956803858,0.0729740038514,-0.989894330502,-0.107350498438
1607271206341641902,0.0571175292134,0.0724729225039,-0.98992305994,-0.107412934303
1607271206355169057,0.0570724308491,0.0720529183745,-0.989946782589,-0.107500955462
1607271206355498075,0.0570056252182,0.0716409906745,-0.989975273609,-0.107549495995
1607271206355994939,0.0569498613477,0.0712552443147,-0.990003526211,-0.107575885952
1607271206363367080,0.0569201633334,0.0709002390504,-0.990032315254,-0.10756072402
1607271206366115093,0.0569248124957,0.070560336113,-0.990060031414,-0.107526637614
1607271206373990058,0.0569549947977,0.0702225342393,-0.990088582039,-0.107468627393
1607271206379395961,0.0569685138762,0.0698163881898,-0.990124344826,-0.107396826148
1607271206380850076,0.0570104420185,0.0694828778505,-0.990152359009,-0.107332438231
1607271206386025905,0.0570378191769,0.0691726356745,-0.990180194378,-0.107261665165
1607271206395477056,0.0570660680532,0.0688437148929,-0.990208864212,-0.107194162905
1607271206396270036,0.0570897907019,0.0685452222824,-0.990237891674,-0.107103712857
1607271206400933980,0.0571343228221,0.0682227835059,-0.99026632309,-0.107022672892
1607271206405901908,0.0571665763855,0.0679198130965,-0.990294635296,-0.106936790049
1607271206413398981,0.0571441650391,0.0675649791956,-0.990331590176,-0.106831438839
1607271206415812969,0.0571771301329,0.0673199892044,-0.990358412266,-0.106719233096
1607271206421097040,0.0572263859212,0.0670890286565,-0.990384340286,-0.10659814626
1607271206426904916,0.0572922304273,0.0668946132064,-0.990411162376,-0.106435663998
1607271206431044101,0.0573807246983,0.0667165368795,-0.990435123444,-0.106276921928
1607271206435997962,0.0574583932757,0.0665626525879,-0.990462005138,-0.1060802266
1607271206440896987,0.0575354360044,0.0664274543524,-0.99048769474,-0.105883516371
1607271206446770906,0.0575761608779,0.0662226676941,-0.990522623062,-0.105662629008
1607271206450869083,0.0576095469296,0.0661201328039,-0.99055147171,-0.105437360704
1607271206456132888,0.0576317198575,0.0660325139761,-0.990583062172,-0.105183027685
1607271206461429119,0.0576110482216,0.0659568533301,-0.990616619587,-0.104925997555
1607271206467453956,0.0575604364276,0.0658999457955,-0.99065297842,-0.104645326734
1607271206470943927,0.0574855618179,0.0658461675048,-0.990690112114,-0.104368939996
1607271206479057073,0.0573916211724,0.0658101737499,-0.990729272366,-0.104071184993
1607271206481067895,0.057260401547,0.0657550096512,-0.990770339966,-0.103786669672
1607271206486083984,0.0571006983519,0.0657531023026,-0.990811467171,-0.103483244777
1607271206506230115,0.0569305606186,0.0657790452242,-0.990849673748,-0.103194311261
1607271206506638050,0.0567392334342,0.0658224374056,-0.990887641907,-0.102906197309
1607271206506757020,0.05655567348,0.0658843517303,-0.99092233181,-0.102633431554
1607271206506912946,0.0563788861036,0.0659737586975,-0.990955650806,-0.102351628244
1607271206518954992,0.0563335008919,0.0660757869482,-0.990982353687,-0.102051883936
1607271206519340038,0.0561996847391,0.0661906525493,-0.991011500359,-0.101767778397
1607271206524988889,0.0560937076807,0.0663274526596,-0.991034388542,-0.101513944566
1607271206528420925,0.0560124032199,0.0664647370577,-0.991056859493,-0.101249322295
1607271206531085014,0.0559063516557,0.0666119456291,-0.991077780724,-0.101005963981
1607271206536006927,0.0557983480394,0.0667482241988,-0.99109941721,-0.100762829185
1607271206541459083,0.0556010045111,0.0668204054236,-0.99113714695,-0.100453183055
1607271206547763109,0.055446293205,0.0669390037656,-0.991165399551,-0.100180178881
1607271206551013946,0.0552514567971,0.0670186281204,-0.99119746685,-0.0999166890979
1607271206556018114,0.0550227351487,0.0670780017972,-0.991231918335,-0.0996612235904
1607271206561505079,0.0547690801322,0.0670917108655,-0.991269290447,-0.0994195789099
1607271206566121101,0.054491776973,0.0670851543546,-0.991308629513,-0.099184282124
1607271206571211099,0.0542117916048,0.0670370906591,-0.991348564625,-0.0989711433649
1607271206578536987,0.0539596378803,0.0670175775886,-0.991388678551,-0.0987198576331
1607271206581010103,0.0536352992058,0.0669348686934,-0.991429507732,-0.0985419675708
1607271206586126089,0.0533018149436,0.0668335184455,-0.9914701581,-0.0983826443553
1607271206594170093,0.0529647134244,0.066719032824,-0.991511702538,-0.0982234477997
1607271206596240043,0.0526203773916,0.0665998011827,-0.99155408144,-0.0980617105961
1607271206601147890,0.0522542148829,0.066479422152,-0.991598129272,-0.0978938117623
1607271206606132984,0.0518209300935,0.0663815736771,-0.991641521454,-0.0977515056729
1607271206612848043,0.0513792298734,0.0664025768638,-0.991680979729,-0.0975695922971
1607271206616005897,0.0508590303361,0.0663574263453,-0.991725504398,-0.0974195301533
1607271206621079921,0.050390984863,0.0663496181369,-0.991765499115,-0.097260646522
1607271206626708030,0.0499865747988,0.0663568750024,-0.99180328846,-0.097079358995
1607271206631190061,0.0496854111552,0.06639534235,-0.9918358922,-0.0968741476536
1607271206636373996,0.0494935549796,0.0664345771074,-0.991869628429,-0.0965995118022
1607271206641325950,0.0494523905218,0.0664032101631,-0.991903722286,-0.0962919518352
1607271206647255897,0.0494453310966,0.0663814395666,-0.991937816143,-0.0959585681558
1607271206651103019,0.0494822449982,0.0663092657924,-0.991974413395,-0.0956102386117
1607271206656128883,0.0494808070362,0.0662003830075,-0.992018580437,-0.0952283591032
1607271206661439895,0.0494513697922,0.0660611093044,-0.992067098618,-0.0948329791427
1607271206666060924,0.0493673011661,0.0658968389034,-0.992123305798,-0.0944025442004
1607271206671224117,0.0492254830897,0.0657487809658,-0.992180347443,-0.0939794629812
1607271206680519104,0.0488154515624,0.0656425058842,-0.992243111134,-0.0936044901609
1607271206681461095,0.0486173070967,0.0654824152589,-0.992303967476,-0.0931737199426
1607271206686125040,0.0484737381339,0.0653183460236,-0.992361307144,-0.0927519574761
1607271206694777965,0.0484197437763,0.0651434063911,-0.992412626743,-0.092352591455
1607271206696201086,0.0484412163496,0.064978338778,-0.992458999157,-0.0919590964913
1607271206701108932,0.048493206501,0.0648196712136,-0.992500245571,-0.0915977135301
1607271206706037998,0.0485531501472,0.0647208020091,-0.99253308773,-0.0912796631455
1607271206713855028,0.0487047955394,0.0647086575627,-0.99255245924,-0.0909957066178
1607271206716026067,0.0488281324506,0.0647320598364,-0.992569029331,-0.0907324180007
1607271206721034049,0.0489863492548,0.0648231729865,-0.992578327656,-0.0904799625278
1607271206727770090,0.0492534898221,0.0649751350284,-0.99257683754,-0.0902421846986
1607271206731440067,0.0495448261499,0.0651881620288,-0.992568492889,-0.0900195240974
1607271206736067056,0.0499060861766,0.0654690414667,-0.992550432682,-0.0898155197501
1607271206741699934,0.0501126423478,0.065649881959,-0.992556214333,-0.0895038843155
1607271206747025012,0.0504839941859,0.0660371109843,-0.99253153801,-0.0892837941647
1607271206752533912,0.050840370357,0.0664820149541,-0.992503404617,-0.0890641212463
1607271206756045103,0.0511706769466,0.0669818818569,-0.992474257946,-0.0888250097632
1607271206761826038,0.0514694750309,0.067509457469,-0.992443144321,-0.0886004716158
1607271206765892028,0.0517161078751,0.0680828094482,-0.992412626743,-0.0883599072695
1607271206779608964,0.05190128088,0.0686505362391,-0.992385804653,-0.0881129354239
1607271206780190944,0.0520201101899,0.0692296028137,-0.992362678051,-0.0878492668271
1607271206783416032,0.0519894808531,0.069699972868,-0.992355763912,-0.0875735133886
1607271206786287069,0.0518759302795,0.0702672973275,-0.992345094681,-0.0873075723648
1607271206794327020,0.0516456998885,0.0708471089602,-0.992339730263,-0.0870366245508
1607271206796060085,0.0513122789562,0.0713970214128,-0.99234354496,-0.0867398902774
1607271206801115989,0.0509020499885,0.0719180777669,-0.992353856564,-0.0864328891039
1607271206806008100,0.0503913126886,0.0723983719945,-0.992373943329,-0.0860995352268
1607271206813064098,0.0500271320343,0.0728607326746,-0.992387473583,-0.0857657939196
1607271206816005945,0.0493232049048,0.0732840448618,-0.992422521114,-0.0854066461325
1607271206821084022,0.0485152043402,0.0736553445458,-0.992464125156,-0.0850657224655
1607271206827995061,0.0476567149162,0.0739795491099,-0.992513537407,-0.0846924111247
1607271206831188917,0.0467342250049,0.0742477923632,-0.992567241192,-0.0843412727118
1607271206836071968,0.0457744151354,0.0744756162167,-0.992626368999,-0.0839707702398
1607271206841197013,0.0448008365929,0.0746636092663,-0.992688179016,-0.0835967436433
1607271206847362041,0.0441953390837,0.0749432966113,-0.992720901966,-0.0832797437906
1607271206851519107,0.0433132350445,0.0750135555863,-0.992786705494,-0.0828946530819
1607271206856193065,0.0424861498177,0.0750337094069,-0.99285286665,-0.0825112462044
1607271206862210988,0.0416978895664,0.0750127434731,-0.992917954922,-0.0821481645107
1607271206866244077,0.0409635715187,0.0749222189188,-0.992986381054,-0.0817726626992
1607271206871186971,0.0403148010373,0.0747907683253,-0.993054270744,-0.0813902318478
1607271206880326032,0.0396490581334,0.0747708678246,-0.993114054203,-0.0810048431158
1607271206881330013,0.0390925183892,0.074549920857,-0.993188798428,-0.0805612206459
1607271206886075973,0.038545332849,0.0742930620909,-0.993265986443,-0.0801091119647
1607271206894891977,0.0379817597568,0.0740185528994,-0.993344664574,-0.079656034708
1607271206896161079,0.0374414995313,0.0737340301275,-0.993423342705,-0.079193264246
1607271206901129961,0.0369050502777,0.0734515786171,-0.993501722813,-0.0787225142121
1607271206906132936,0.0364035740495,0.0732022374868,-0.993576407433,-0.0782441273332
1607271206913861989,0.0357690826058,0.0731426477432,-0.993638694286,-0.0778000578284
1607271206916002035,0.0353107117116,0.0729781910777,-0.993703901768,-0.0773301199079
1607271206921142101,0.0349115692079,0.0728877857327,-0.993759810925,-0.0768766105175
1607271206928632020,0.0345833748579,0.0728722438216,-0.993807852268,-0.0764178484678
1607271206931168079,0.0343715213239,0.072908334434,-0.993846178055,-0.075978897512
1607271206936036109,0.0342471301556,0.0730319693685,-0.993875265121,-0.0755353271961
1607271206941175937,0.0341076888144,0.0731367170811,-0.99390566349,-0.0750959217548
1607271206947082996,0.0341766886413,0.0733861923218,-0.993918299675,-0.0746511146426
1607271206951044082,0.0343448109925,0.0736751109362,-0.993925631046,-0.0741907954216
1607271206955903053,0.0345877818763,0.0739929080009,-0.993927359581,-0.0737375542521
1607271206962272882,0.0348703451455,0.0743499398232,-0.993924081326,-0.0732883885503
1607271206966145992,0.0351992882788,0.0747259184718,-0.993916094303,-0.0728554874659
1607271206971093893,0.0356005392969,0.0750965178013,-0.993905305862,-0.0724247395992
1607271206979449033,0.0358662828803,0.0753174498677,-0.993912398815,-0.0719662979245
1607271206980889081,0.0363962091506,0.0756777152419,-0.993895709515,-0.0715511962771
1607271206986030101,0.0369026251137,0.0760438591242,-0.993878662586,-0.0711394697428
1607271206994025945,0.0374028161168,0.0763708427548,-0.993862628937,-0.0707510411739
1607271206996227979,0.0379071310163,0.0766638442874,-0.993849277496,-0.0703517645597
1607271207001337051,0.0383953042328,0.0768963545561,-0.993837118149,-0.0700044855475
1607271207006063938,0.0387461297214,0.0770450010896,-0.993834078312,-0.0696903765202
1607271207013072013,0.038953460753,0.0771105661988,-0.993844211102,-0.0693566501141
1607271207015933036,0.0390996225178,0.0771473497152,-0.993851661682,-0.0691259279847
1607271207020987987,0.0391046777368,0.077129073441,-0.99386548996,-0.0689445510507
1607271207027983903,0.0390460602939,0.0770801156759,-0.993880152702,-0.068822003901
1607271207031208038,0.0389700643718,0.0770095661283,-0.99389642477,-0.0687079206109
1607271207035970926,0.0388701930642,0.0769327506423,-0.993911087513,-0.0686383023858
1607271207041007041,0.0390538387001,0.0770697146654,-0.993902742863,-0.0685012042522
1607271207047055006,0.0389733351767,0.076977416873,-0.993915498257,-0.0684655159712
1607271207051141023,0.0389240682125,0.0768702700734,-0.993930459023,-0.0683970600367
1607271207055963039,0.0389227345586,0.076769374311,-0.993943274021,-0.0683252364397
1607271207061609983,0.0389424078166,0.0766620263457,-0.993956208229,-0.0682461857796
1607271207066239118,0.0390109084547,0.0765543803573,-0.993968248367,-0.0681525170803
1607271207071115016,0.0391451716423,0.0764445737004,-0.993978738785,-0.0680455714464
1607271207079500913,0.0392765104771,0.0763260573149,-0.993992209435,-0.067905254662
1607271207081394910,0.0394277386367,0.0762310177088,-0.994004070759,-0.0677511915565
1607271207086246967,0.03963515535,0.0761131197214,-0.994016110897,-0.0675856769085
1607271207094683885,0.0397999770939,0.076019436121,-0.994027614594,-0.0674254000187
1607271207096024990,0.0400089100003,0.0758993700147,-0.994039416313,-0.0672629103065
1607271207101321935,0.0402169786394,0.0757970809937,-0.994050264359,-0.0670935884118
1607271207106266021,0.0404498465359,0.075669452548,-0.994060814381,-0.0669410452247
1607271207114905118,0.0405995585024,0.0755363851786,-0.994071543217,-0.066841609776
1607271207116022109,0.040795635432,0.0754113793373,-0.994083940983,-0.0666790232062
1607271207121124029,0.0410019643605,0.075291223824,-0.994095385075,-0.0665173232555
1607271207128762006,0.0411966368556,0.0751544833183,-0.994109630585,-0.0663378313184
1607271207131156921,0.04140580073,0.0750256553292,-0.994123578072,-0.0661446079612
1607271207136351108,0.0416269786656,0.0749147161841,-0.994134306908,-0.0659696832299
1607271207141156911,0.0419112667441,0.0747963115573,-0.994144082069,-0.0657770484686
1607271207147552967,0.0422662571073,0.0747128129005,-0.994146764278,-0.0656033754349
1607271207151256084,0.042631149292,0.0745828673244,-0.994155287743,-0.0653855353594
1607271207156059026,0.0430289916694,0.0744606032968,-0.994162261486,-0.065158136189
1607271207162734985,0.0434302873909,0.0743424445391,-0.994167864323,-0.0649403184652
1607271207166292905,0.0438126176596,0.0742256641388,-0.99417424202,-0.0647194236517
1607271207173862934,0.0441899634898,0.0741184577346,-0.994180381298,-0.0644911006093
1607271207181078910,0.0444878712296,0.0740129202604,-0.994185864925,-0.0643231347203
1607271207181452989,0.0448192916811,0.0738999769092,-0.994193196297,-0.0641094297171
1607271207186333894,0.0451371595263,0.0738071650267,-0.994197070599,-0.0639328733087
1607271207195235967,0.0454557575285,0.0737096443772,-0.994200944901,-0.063758559525
1607271207196099042,0.0457660742104,0.0736418515444,-0.994202673435,-0.0635882541537
1607271207201216936,0.0460877679288,0.0735799372196,-0.994201481342,-0.0634462162852
1607271207206271886,0.046391621232,0.0735484659672,-0.994198560715,-0.0633068531752
1607271207215251922,0.0467146374285,0.0735494345427,-0.994193434715,-0.0631480813026
1607271207216154098,0.0469653457403,0.0735851228237,-0.994187831879,-0.0630080476403
1607271207221400976,0.0472396835685,0.0736296102405,-0.994179964066,-0.0628758221865
1607271207228815078,0.047546621412,0.0737243294716,-0.99416667223,-0.062742844224
1607271207233289003,0.0478828810155,0.0738249197602,-0.994149804115,-0.0626366585493
1607271207236284971,0.0481890030205,0.0739612430334,-0.994130969048,-0.0625401884317
1607271207241214036,0.0484881773591,0.0740089789033,-0.994116842747,-0.0624760612845
1607271207247179985,0.0487052276731,0.0741445124149,-0.994100093842,-0.0624134168029
1607271207251302957,0.0488857701421,0.0742754712701,-0.994083881378,-0.062375806272
1607271207256285905,0.0490226522088,0.0744126364589,-0.994068682194,-0.0623463615775
1607271207262948989,0.0491344630718,0.0745411738753,-0.994053244591,-0.0623515173793
1607271207266308069,0.0492242537439,0.0746441483498,-0.994039773941,-0.0623722262681
1607271207271230936,0.0493023246527,0.074739292264,-0.99402743578,-0.0623919218779
1607271207282008886,0.049415692687,0.0747862458229,-0.994017720222,-0.0624014735222
1607271207282325983,0.0494241677225,0.0748541802168,-0.994010210037,-0.0624333061278
1607271207286220073,0.0494241341949,0.0749137476087,-0.994004666805,-0.0624490007758
1607271207295151948,0.0494463630021,0.0749586895108,-0.993999481201,-0.0624600462615
1607271207296506881,0.0495060011744,0.0750016495585,-0.993992447853,-0.0624740161002
1607271207301325082,0.0495674610138,0.0750405788422,-0.993987500668,-0.0624570287764
1607271207306287050,0.0496477894485,0.0750801190734,-0.993979811668,-0.0624674297869
1607271207314956903,0.0498093478382,0.075193606317,-0.993961036205,-0.0625011846423
1607271207316093921,0.0498984530568,0.0752609372139,-0.993951678276,-0.0624972395599
1607271207321276903,0.0500018596649,0.0753300860524,-0.993940591812,-0.0625088363886
1607271207329093933,0.050122179091,0.0754317715764,-0.993925631046,-0.06252810359
1607271207331408977,0.0502295829356,0.0755473002791,-0.993908464909,-0.0625741109252
1607271207336056947,0.0503630079329,0.07568243891,-0.99388718605,-0.0626424476504
1607271207341605901,0.050388596952,0.0757961198688,-0.993871092796,-0.062740392983
1607271207347407102,0.0504770502448,0.075946636498,-0.993849754333,-0.0628250315785
1607271207351247072,0.0505093410611,0.0760973393917,-0.99383109808,-0.0629103928804
1607271207356298923,0.050473947078,0.0762511193752,-0.993816137314,-0.0629898831248
1607271207362811088,0.0504021681845,0.0763737335801,-0.993804335594,-0.0630837976933
1607271207366198062,0.0503038279712,0.0764885470271,-0.99379581213,-0.0631583854556
1607271207371239900,0.0501799024642,0.0765723884106,-0.993789553642,-0.0632537603378
1607271207381985902,0.0501242913306,0.0766487419605,-0.993783473969,-0.0633008852601
1607271207382303953,0.0499876476824,0.0766881927848,-0.99378156662,-0.0633908361197
1607271207386136054,0.0498673655093,0.0767211019993,-0.993779361248,-0.0634804293513
1607271207395215988,0.0497644133866,0.0767156332731,-0.993777811527,-0.0635909214616
1607271207396322965,0.0496740750968,0.0767070949078,-0.993776381016,-0.0636943429708
1607271207401247978,0.0495834127069,0.0766791254282,-0.993774652481,-0.0638257339597
1607271207406323909,0.0495112277567,0.0766547843814,-0.993771612644,-0.0639583617449
1607271207414561986,0.0494914315641,0.0766605660319,-0.993763208389,-0.064097635448
1607271207416187047,0.0494480282068,0.0766384601593,-0.993758022785,-0.0642377436161
1607271207421196937,0.0494462549686,0.0766324549913,-0.99374973774,-0.0643740445375
1607271207429513931,0.0494773387909,0.0766329988837,-0.993739962578,-0.0645009875298
1607271207431189060,0.0495246574283,0.0766540169716,-0.993727087975,-0.064637966454
1607271207436113119,0.0495791360736,0.076698154211,-0.993712484837,-0.0647679194808
1607271207441430091,0.0497140586376,0.0767603814602,-0.993691384792,-0.0649143010378
1607271207447304964,0.0498092509806,0.0768839195371,-0.993667662144,-0.0650576353073
1607271207451199054,0.0500034801662,0.0769909247756,-0.993640601635,-0.065194748342
1607271207456141948,0.0502017065883,0.0771381258965,-0.993610739708,-0.0653237104416
1607271207462286949,0.0504012741148,0.0772828236222,-0.993580043316,-0.0654662176967
1607271207466298103,0.0505716763437,0.0774418190122,-0.993548929691,-0.0656193047762
1607271207471229076,0.0507058426738,0.0776017606258,-0.993518948555,-0.0657804831862
1607271207482959032,0.0507336296141,0.0777043625712,-0.993495643139,-0.0659891143441
1607271207483448028,0.0507946908474,0.0778835862875,-0.993465185165,-0.0661892145872
1607271207486229896,0.0508272834122,0.0780683085322,-0.993432462215,-0.0664371848106
1607271207495907068,0.0508402585983,0.0782379433513,-0.993400096893,-0.0667107105255
1607271207496458053,0.0508340075612,0.0784047618508,-0.993368148804,-0.066994972527
1607271207501296043,0.0508260764182,0.0785438269377,-0.993336379528,-0.0673087090254
1607271207506230115,0.0507887750864,0.0786830931902,-0.993303239346,-0.0676623210311
1607271207513415098,0.050811521709,0.0787920132279,-0.993269562721,-0.0680122300982
1607271207516619920,0.0508034490049,0.0788607597351,-0.993238568306,-0.0683897361159
1607271207521209955,0.0508020035923,0.0788780674338,-0.993210375309,-0.0687790736556
1607271207529692888,0.0508007109165,0.0788544937968,-0.993186235428,-0.0691544935107
1607271207531210899,0.0507723689079,0.0787829086185,-0.993166089058,-0.0695448741317
1607271207536176919,0.050716266036,0.0786523297429,-0.993152439594,-0.069927982986
1607271207541512012,0.0506852678955,0.0785840153694,-0.993134796619,-0.0702774003148
1607271207548043966,0.050613578409,0.078364469111,-0.993129551411,-0.0706472024322
1607271207551171064,0.0505402125418,0.0780795663595,-0.993129789829,-0.071010760963
1607271207556225061,0.0504753291607,0.0777643471956,-0.993130147457,-0.0713971033692
1607271207562310934,0.0504076257348,0.0774103328586,-0.993134915829,-0.0717615634203
1607271207566423892,0.0503287017345,0.0770328119397,-0.993142545223,-0.0721171051264
1607271207573595046,0.0502797104418,0.0766118764877,-0.993151843548,-0.0724702775478
1607271207583228111,0.0502241700888,0.0762963667512,-0.993148386478,-0.0728882104158
1607271207583549022,0.050149794668,0.0758292227983,-0.993162095547,-0.073239736259
1607271207586299896,0.0501064285636,0.0753013715148,-0.993180513382,-0.0735630020499
1607271207593791007,0.0500978268683,0.0747638344765,-0.993196487427,-0.0739012435079
1607271207596324920,0.0500980913639,0.0741995424032,-0.993213951588,-0.0742338076234
1607271207601277112,0.0501350425184,0.0736329182982,-0.993231773376,-0.0745339021087
1607271207606108903,0.0502149611712,0.0730595439672,-0.993248105049,-0.0748263299465
1607271207612349987,0.0502410456538,0.0726010799408,-0.993253707886,-0.0751802176237
1607271207616141080,0.0502160079777,0.0720475241542,-0.993272662163,-0.0754785016179
1607271207621196031,0.0501400530338,0.071501262486,-0.993292093277,-0.0757926180959
1607271207626358985,0.0499994084239,0.0710023790598,-0.993308484554,-0.0761387124658
1607271207631362915,0.0497802086174,0.070556551218,-0.993324160576,-0.0764905959368
1607271207638595104,0.0495666414499,0.0701657012105,-0.993336558342,-0.0768276453018
1607271207641290903,0.0493881031871,0.0698162317276,-0.993345797062,-0.0771404355764
1607271207646748065,0.0491121821105,0.0696052983403,-0.993348538876,-0.0774715691805
1607271207651209115,0.0487932562828,0.0695055127144,-0.993345201015,-0.0778041854501
1607271207656044960,0.048450820148,0.0695088580251,-0.993337929249,-0.078107252717
1607271207661582946,0.048112038523,0.0696244239807,-0.993323087692,-0.0784024298191
1607271207666182994,0.0478556677699,0.0698275268078,-0.993300318718,-0.078667126596
1607271207671745061,0.0476845577359,0.0701275840402,-0.993268311024,-0.0789078548551
1607271207680589914,0.0476592294872,0.0704990401864,-0.993226766586,-0.0791139528155
1607271207681411027,0.04774941504,0.0709368661046,-0.993178129196,-0.0792793259025
1607271207686316967,0.0480342544615,0.0711663737893,-0.993142008781,-0.0793537944555
1607271207693852901,0.0483436472714,0.0716584548354,-0.993088662624,-0.079391643405
1607271207697086095,0.0487127453089,0.0721510276198,-0.993036448956,-0.079372830689
1607271207701251983,0.049147285521,0.0726465582848,-0.992984175682,-0.0793069377542
1607271207706065893,0.0496495552361,0.0731090381742,-0.992933928967,-0.0791976377368
1607271207711981058,0.0502086170018,0.0735430121422,-0.992882966995,-0.0790820717812
1607271207716111898,0.0508064627647,0.0739199742675,-0.992835879326,-0.0789402648807
1607271207721390008,0.0511567927897,0.0740518048406,-0.992810308933,-0.0789118558168
1607271207726267099,0.051786404103,0.0743295475841,-0.992768585682,-0.0787649154663
1607271207731365919,0.0524272173643,0.0745664089918,-0.992726147175,-0.0786516144872
1607271207736331939,0.0530649162829,0.0747727379203,-0.992683947086,-0.0785607099533
1607271207741163969,0.0537500269711,0.0749480873346,-0.992638766766,-0.0784983634949
1607271207746649980,0.0544586144388,0.0750686526299,-0.992591798306,-0.0784885212779
1607271207751337051,0.0549509897828,0.0752540454268,-0.992537438869,-0.0786558240652
1607271207756287097,0.0554750822484,0.075285166502,-0.992491960526,-0.0788312703371
1607271207761904954,0.0558516420424,0.0753000080585,-0.992448151112,-0.0791028216481
1607271207766100883,0.0560333803296,0.0752872005105,-0.992409050465,-0.0794753953815
1607271207771027088,0.0560656562448,0.0752736106515,-0.992371022701,-0.0799393877387
1607271207780436038,0.0559481717646,0.0753094553947,-0.992330372334,-0.0804914087057
1607271207781114101,0.0557669624686,0.0753693282604,-0.992283821106,-0.0811320915818
1607271207786310911,0.0555057637393,0.0756392478943,-0.992231547832,-0.0816972851753
1607271207793682098,0.0551510974765,0.0758260563016,-0.992174625397,-0.0824523866177
1607271207796354055,0.0547546185553,0.0761025175452,-0.992111027241,-0.0832238644361
1607271207801162004,0.0543585047126,0.0764388591051,-0.992041230202,-0.0840023607016
1607271207806250095,0.0539727024734,0.0768594220281,-0.991962015629,-0.0847994089127
1607271207812318086,0.0536158047616,0.0773343443871,-0.991876959801,-0.0855856314301
1607271207816251993,0.0536868050694,0.0778236687183,-0.991789400578,-0.0861100777984
1607271207821496963,0.0534120388329,0.0783825591207,-0.991696596146,-0.0868399217725
1607271207827243089,0.0531813204288,0.078957721591,-0.991602540016,-0.087532274425
1607271207831228017,0.0529889985919,0.079499438405,-0.991509795189,-0.0882070213556
1607271207836244106,0.0528212338686,0.080016694963,-0.99141740799,-0.0888747051358
1607271207841344118,0.0526795871556,0.0804708227515,-0.991329610348,-0.0895259976387
1607271207846678018,0.0524979159236,0.0806989595294,-0.991261720657,-0.0901773497462
1607271207851488113,0.0523825101554,0.080984801054,-0.991191625595,-0.0907570496202
1607271207856497049,0.052253741771,0.0811751186848,-0.991131007671,-0.0913210660219
1607271207861473083,0.0520734675229,0.0812651142478,-0.991082489491,-0.0918689742684
1607271207866178989,0.0518456324935,0.0812338590622,-0.991049468517,-0.0923800244927
1607271207871418952,0.0515746511519,0.0810852646828,-0.991029679775,-0.0928732082248
1607271207879751920,0.0512693338096,0.0808267518878,-0.991024434566,-0.0933226272464
1607271207881086111,0.0508373305202,0.0806674435735,-0.991015136242,-0.0937944725156
1607271207886327981,0.050509724766,0.0802005529404,-0.991034626961,-0.0941651165485
1607271207894223928,0.0501790568233,0.0796334594488,-0.991065621376,-0.0944959968328
1607271207896482944,0.0498515069485,0.0790058374405,-0.991104066372,-0.0947927981615
1607271207901406049,0.0495445653796,0.0783182531595,-0.991147220135,-0.0950724631548
1607271207906399011,0.0492374785244,0.0775914043188,-0.991196811199,-0.0953107178211
1607271207914473056,0.0489787533879,0.0768249332905,-0.991249442101,-0.0955175161362
1607271207916214942,0.0488629378378,0.0763375684619,-0.991269111633,-0.095762938261
1607271207921403884,0.048737950623,0.0755942538381,-0.991321444511,-0.0958752930164
1607271207929079055,0.0487285107374,0.0749159231782,-0.991366267204,-0.0959489494562
1607271207931318044,0.0488168857992,0.0743081793189,-0.991406440735,-0.095960944891
1607271207936261892,0.0490068905056,0.0737981572747,-0.991435050964,-0.0959622934461
1607271207941366910,0.0492314398289,0.0733668208122,-0.991457760334,-0.0959434211254
1607271207947896957,0.049351606518,0.0730367526412,-0.991469919682,-0.0960075706244
1607271207951306104,0.0496555194259,0.0727782994509,-0.991482079029,-0.0959212034941
1607271207956429958,0.0500254333019,0.0726196169853,-0.991486251354,-0.0958063974977
1607271207961905956,0.0504833981395,0.0725263804197,-0.991481482983,-0.0956862196326
1607271207966587066,0.0510014854372,0.0725211650133,-0.99146848917,-0.0955500900745
1607271207971360921,0.0515451133251,0.0726020559669,-0.991447508335,-0.0954144895077
1607271207982916116,0.0521083474159,0.0727473273873,-0.991422951221,-0.0952524915338
1607271207983232021,0.0525024943054,0.0726825520396,-0.991418004036,-0.0951377078891
1607271207986332893,0.0530803091824,0.0729239732027,-0.991388380527,-0.0949404686689
1607271207995549917,0.0536332130432,0.0732000023127,-0.99135774374,-0.0947372689843
1607271207996448993,0.0541890859604,0.0734905302525,-0.991327345371,-0.0945136398077
1607271208001379013,0.0547047108412,0.073776088655,-0.99129897356,-0.0942919924855
1607271208006326913,0.0551910325885,0.0740672200918,-0.991273462772,-0.0940476804972
1607271208014909982,0.0557161830366,0.0743501037359,-0.99124455452,-0.0938194617629
1607271208016164064,0.0561982542276,0.0744289308786,-0.991239607334,-0.0935207977891
1607271208021310091,0.0567657276988,0.0746566131711,-0.991214513779,-0.0932624936104
1607271208029434919,0.0572967119515,0.074869222939,-0.991191625595,-0.0930106267333
1607271208031306028,0.057782061398,0.0750492662191,-0.991173803806,-0.0927547067404
1607271208036299943,0.0582578331232,0.0751800686121,-0.991160154343,-0.0924964398146
1607271208041430950,0.0587009526789,0.0752828195691,-0.991151034832,-0.0922302082181
1607271208048527956,0.0591060593724,0.0753623396158,-0.991138994694,-0.092035651207
1607271208051235914,0.0595027059317,0.075481466949,-0.991125285625,-0.0918300300837
1607271208056252956,0.059886675328,0.0755631998181,-0.991110742092,-0.0916698724031
1607271208062144994,0.0602974444628,0.0756413266063,-0.991092443466,-0.091533139348
1607271208066414117,0.060749720782,0.0757220387459,-0.991069495678,-0.0914166644216
1607271208071274042,0.0611997283995,0.0758273378015,-0.991042017937,-0.091327086091
1607271208081882953,0.0616437532008,0.07594756037,-0.991010606289,-0.0912688374519
1607271208082201957,0.0622347295284,0.0761234983802,-0.990972161293,-0.0911388173699
1607271208086261034,0.0627201572061,0.0762020722032,-0.99094080925,-0.0910814702511
1607271208095654964,0.0632060170174,0.0762451514602,-0.990909993649,-0.0910446345806
1607271208096591949,0.0636567920446,0.0762498900294,-0.990882217884,-0.0910289436579
1607271208101536035,0.0640512183309,0.0762119144201,-0.990861594677,-0.0910081490874
1607271208106307029,0.064398907125,0.0761284157634,-0.990846931934,-0.090992167592
1607271208114726066,0.0646756589413,0.0759780704975,-0.990840613842,-0.0909907519817
1607271208116214036,0.0649172067642,0.0757801383734,-0.990847051144,-0.0909135788679
1607271208121263027,0.0650423765182,0.0755266621709,-0.990857720375,-0.0909189730883
1607271208129209995,0.0650992617011,0.0752531141043,-0.990873515606,-0.0909327045083
1607271208131341934,0.065100312233,0.0749620422721,-0.990893363953,-0.0909564122558
1607271208136403083,0.0650404915214,0.0746424198151,-0.99091809988,-0.0909921377897
1607271208141330957,0.0649508833885,0.0743181630969,-0.990946650505,-0.0910110473633
1607271208148087978,0.0650250390172,0.0741111040115,-0.990959525108,-0.0909863635898
1607271208151282072,0.0648964866996,0.0738074705005,-0.990986585617,-0.0910303518176
1607271208156243085,0.0647654980421,0.0735089033842,-0.991013109684,-0.0910767242312
1607271208161936044,0.0646739825606,0.0732501372695,-0.991034448147,-0.0911177992821
1607271208166455984,0.0646167248487,0.0730265602469,-0.991050243378,-0.0911663845181
1607271208171464920,0.0646166726947,0.072855591774,-0.991058826447,-0.0912092998624
1607271208180948972,0.0646536797285,0.0727293491364,-0.991061329842,-0.0912575274706
1607271208181541919,0.0647657588124,0.0726126879454,-0.991061747074,-0.0912658572197
1607271208186269998,0.0648769438267,0.0725559294224,-0.991056263447,-0.0912915840745
1607271208195472002,0.0650014951825,0.0725513473153,-0.991047382355,-0.0913030579686
1607271208196564912,0.0651357099414,0.0725536942482,-0.991036176682,-0.0913271233439
1607271208201163053,0.0652179345489,0.0725782141089,-0.991027832031,-0.0913393348455
1607271208206259012,0.0652825534344,0.0725811049342,-0.991022408009,-0.0913494378328
1607271208214534044,0.0651714354753,0.0724303945899,-0.991040408611,-0.0913539901376
1607271208216341018,0.0651721507311,0.0724104121327,-0.991042852402,-0.0913427695632
1607271208221288919,0.0651640072465,0.0723742321134,-0.99104565382,-0.0913463160396
1607271208229211091,0.0651410520077,0.0723142102361,-0.99105322361,-0.0913278385997
1607271208231420040,0.0650878995657,0.0722486153245,-0.991059839725,-0.0913458764553
1607271208236279010,0.0649947524071,0.0721544101834,-0.991071999073,-0.0913552418351
1607271208241343021,0.0648862794042,0.0720330625772,-0.991087019444,-0.0913650915027
1607271208248126029,0.0647721290588,0.0718721523881,-0.991099953651,-0.0914324522018
1607271208251348972,0.0646195784211,0.0716940388083,-0.991121768951,-0.091443695128
1607271208256392955,0.064463429153,0.0715034082532,-0.991141617298,-0.0914885848761
1607271208261902093,0.0643119290471,0.0712981522083,-0.991161286831,-0.0915422514081
1607271208266484975,0.0641535148025,0.0710843354464,-0.991180300713,-0.0916128158569
1607271208271389007,0.0639713853598,0.0708528235555,-0.991203606129,-0.0916672199965
1607271208280709028,0.0637885630131,0.0706102922559,-0.991227984428,-0.0917189121246
1607271208281948089,0.0636287331581,0.0704087615013,-0.991249918938,-0.0917481482029
1607271208286390066,0.0634447261691,0.0701617449522,-0.991273403168,-0.0918101146817
1607271208295624971,0.0632320791483,0.0699075087905,-0.991298139095,-0.0918843820691
1607271208296359062,0.0630062147975,0.06964982301,-0.991324663162,-0.0919482335448
1607271208301335096,0.0627864301205,0.0694079697132,-0.991347908974,-0.0920312926173
1607271208306225061,0.0625552684069,0.0691542848945,-0.991374194622,-0.0920969098806
1607271208314618110,0.0622821822762,0.0688602104783,-0.991406679153,-0.0921518281102
1607271208316262960,0.0620077438653,0.068608187139,-0.991435945034,-0.0922099649906
1607271208321420907,0.061690274626,0.0683569684625,-0.991467237473,-0.0922732949257
1607271208329292058,0.0613745413721,0.0680889412761,-0.991499066353,-0.0923404768109
1607271208331211090,0.0610736310482,0.0678163692355,-0.991531908512,-0.092388279736
1607271208336401939,0.0607146322727,0.0675680711865,-0.991567611694,-0.0924232751131
1607271208341422080,0.0603278316557,0.0673396214843,-0.991604268551,-0.0924501717091
1607271208348862886,0.0599478073418,0.067115470767,-0.991640388966,-0.0924726352096
1607271208351376056,0.0595854260027,0.0669141933322,-0.991673231125,-0.0925008803606
1607271208356452941,0.0592209771276,0.066727668047,-0.991708219051,-0.0924937203526
1607271208361866950,0.0588674508035,0.0665699616075,-0.991740763187,-0.0924850776792
1607271208366409063,0.0585280656815,0.0664372891188,-0.991774916649,-0.0924293622375
1607271208371546983,0.0582055076957,0.0663169249892,-0.991806566715,-0.0923790261149
1607271208381864070,0.0578944012523,0.0662526860833,-0.991835951805,-0.0923056006432
1607271208382184982,0.0576057843864,0.0661937296391,-0.991864800453,-0.0922187566757
1607271208386429071,0.0573331639171,0.0661120340228,-0.99189555645,-0.0921157151461
1607271208395668029,0.0570689849555,0.0660968646407,-0.991924762726,-0.0919763743877
1607271208396640062,0.056799583137,0.0661136731505,-0.991956233978,-0.0917915031314
1607271208401406049,0.0565299130976,0.0661605224013,-0.991989314556,-0.0915670543909
1607271208406255006,0.056239426136,0.0662222132087,-0.992024123669,-0.0913228094578
1607271208414395093,0.0558969452977,0.0663099512458,-0.992062330246,-0.0910548567772
1607271208416342020,0.0554491132498,0.0663011744618,-0.992108225822,-0.0908342823386
1607271208421546936,0.0550728775561,0.066392749548,-0.992151737213,-0.0905203670263
1607271208429147958,0.0546736977994,0.0664567649364,-0.992200613022,-0.0901790484786
1607271208431391954,0.0542395561934,0.0665258392692,-0.992250919342,-0.0898362994194
1607271208436320066,0.0537655614316,0.0665694028139,-0.992304086685,-0.0895005092025
1607271208441602945,0.0532360449433,0.0665971264243,-0.992361843586,-0.0891556367278
1607271208447921037,0.052726007998,0.0665575116873,-0.992414176464,-0.0889059975743
1607271208451406002,0.0521598234773,0.0665512606502,-0.992475271225,-0.0885623171926
1607271208456516981,0.0515976734459,0.0665465965867,-0.992534160614,-0.0882337912917
1607271208461926937,0.0510100647807,0.066542185843,-0.992594122887,-0.087903983891
1607271208466526031,0.0503943376243,0.0665468126535,-0.992654263973,-0.0875753387809
1607271208471503973,0.0497632473707,0.0665694475174,-0.992716491222,-0.0872127562761
1607271208482028961,0.0492221564054,0.0665693730116,-0.992777347565,-0.0868263691664
1607271208482342958,0.0488679967821,0.0665943026543,-0.99283605814,-0.0863347426057
1607271208486542940,0.0487449541688,0.066499248147,-0.992897093296,-0.0857743024826
1607271208495562076,0.0488243550062,0.0663301572204,-0.992962479591,-0.0850999876857
1607271208496962070,0.048998169601,0.0660811215639,-0.993034660816,-0.0843485146761
1607271208501487016,0.0491285249591,0.0657527819276,-0.993118703365,-0.0835357159376
1607271208506483078,0.0490982308984,0.0653633475304,-0.993215382099,-0.0827068015933
1607271208515732049,0.0489496700466,0.0649221688509,-0.993320047855,-0.0818798094988
1607271208516328096,0.0483233183622,0.0644981637597,-0.993434131145,-0.081200838089
1607271208521511077,0.047844171524,0.0640089064837,-0.993545651436,-0.0805036649108
1607271208529303073,0.0472459569573,0.063473969698,-0.993659257889,-0.0798759013414
1607271208531482934,0.0465625785291,0.0629730224609,-0.993767023087,-0.0793310701847
1607271208536489963,0.0458120070398,0.0624852403998,-0.993866741657,-0.0789038836956
1607271208541578054,0.0450360402465,0.0620566420257,-0.993951499462,-0.0786203965545
1607271208547561883,0.0445324443281,0.0618264600635,-0.994007885456,-0.0783754885197
1607271208551243066,0.0438478626311,0.0615197755396,-0.994064807892,-0.0782807767391
1607271208556401968,0.0432312078774,0.0613021925092,-0.99410790205,-0.0782472416759
1607271208561939954,0.0426770485938,0.061196770519,-0.994136869907,-0.0782658159733
1607271208566437959,0.0422273874283,0.0612055398524,-0.994151413441,-0.0783180892467
1607271208571356058,0.0418654307723,0.061350312084,-0.994150578976,-0.0784102901816
1607271208581319093,0.041629306972,0.0615865662694,-0.994136214256,-0.078532718122
1607271208581635951,0.0415121242404,0.0617202855647,-0.994146764278,-0.0783559978008
1607271208586510896,0.0415692850947,0.0620872080326,-0.994111716747,-0.0784804970026
1607271208595580101,0.0417500399053,0.0624740049243,-0.994071125984,-0.0785909220576
1607271208596798896,0.0419970229268,0.0628659278154,-0.994027733803,-0.0786959454417
1607271208601450920,0.0422893464565,0.0632467567921,-0.993983268738,-0.0787963569164
1607271208606403112,0.0425645634532,0.0636161565781,-0.993938922882,-0.0789094939828
1607271208613673925,0.0428003147244,0.0639367029071,-0.993898808956,-0.0790282636881
1607271208616353034,0.0426200814545,0.0639369785786,-0.993907272816,-0.079019010067
1607271208621491909,0.042709376663,0.0641761720181,-0.993876039982,-0.079169742763
1607271208629039049,0.0427250303328,0.0643891468644,-0.993850052357,-0.0793140903115
1607271208631428956,0.0426489412785,0.0645569264889,-0.993830680847,-0.0794618055224
1607271208636487007,0.0424996875226,0.0647176355124,-0.993815541267,-0.0795992612839
1607271208641422986,0.042291726917,0.0648713633418,-0.99380248785,-0.0797484740615
1607271208648288011,0.0421077422798,0.0650995373726,-0.993787944317,-0.0798408165574
1607271208651277065,0.0418128073215,0.0652605816722,-0.993780910969,-0.0799517706037
1607271208656476974,0.0414722897112,0.0654385909438,-0.9937748909,-0.0800589546561
1607271208661814928,0.0411303415895,0.0656254440546,-0.993772387505,-0.0801134556532
1607271208666459083,0.0407692603767,0.065882705152,-0.993765830994,-0.0801684856415
1607271208671394109,0.0403015241027,0.0662168189883,-0.993765115738,-0.0801381245255
