%time,field.x,field.y,field.z
1607254254941971063,-8.49747467041,-5.21245479584,1.57491636276
1607254254946640014,-8.4978723526,-5.21229076385,1.5747885704
1607254254952564954,-8.49829387665,-5.21212816238,1.57464635372
1607254254956163883,-8.49951076508,-5.21200180054,1.57542848587
1607254254968233108,-8.49999046326,-5.21186113358,1.57532465458
1607254254968393087,-8.50047206879,-5.21171045303,1.57521879673
1607254254971230983,-8.50098419189,-5.21157598495,1.57511723042
1607254254980238914,-8.50151634216,-5.21144723892,1.5750181675
1607254254981668949,-8.5020608902,-5.21130847931,1.57491564751
1607254255005270004,-8.50262546539,-5.21117782593,1.57481360435
1607254255005646944,-8.50320720673,-5.21104812622,1.57471013069
1607254255005759000,-8.50209999084,-5.21188640594,1.57527244091
1607254255005852937,-8.50267028809,-5.21176767349,1.57515525818
1607254255019471883,-8.50325965881,-5.21164703369,1.57503426075
1607254255019793987,-8.5038728714,-5.21153688431,1.57490682602
1607254255020036935,-8.50449848175,-5.21142339706,1.57477462292
1607254255021186113,-8.50513935089,-5.21131277084,1.57463729382
1607254255033263921,-8.50556945801,-5.21131229401,1.57505226135
1607254255033571958,-8.50624275208,-5.21121406555,1.57491266727
1607254255036164999,-8.50693321228,-5.21111726761,1.57476472855
1607254255044576883,-8.5076417923,-5.21102237701,1.57461249828
1607254255046191930,-8.50837135315,-5.210916996,1.57445752621
1607254255051115989,-8.50912189484,-5.2108168602,1.57429516315
1607254255056037902,-8.50989437103,-5.21071624756,1.57412707806
1607254255063030004,-8.50896549225,-5.21104240417,1.57465684414
1607254255066174030,-8.50973701477,-5.21095180511,1.57450592518
1607254255071448087,-8.5105266571,-5.21086168289,1.57435071468
1607254255076921939,-8.51137828827,-5.21076250076,1.57411241531
1607254255081167936,-8.51221942902,-5.21066999435,1.57392144203
1607254255086276054,-8.5130815506,-5.21057796478,1.57372546196
1607254255096430063,-8.51314640045,-5.21038579941,1.57451272011
1607254255096736907,-8.51405715942,-5.2102804184,1.57429516315
1607254255101337909,-8.51498985291,-5.2101726532,1.57406461239
1607254255110532999,-8.5159444809,-5.21006298065,1.57381045818
1607254255111253023,-8.5169172287,-5.20995187759,1.57354986668
1607254255116086959,-8.51791000366,-5.20983934402,1.57327544689
1607254255121248006,-8.51892471313,-5.20972776413,1.57299876213
1607254255128912925,-8.51838493347,-5.20989894867,1.5739222765
1607254255131097078,-8.51943016052,-5.20979166031,1.57365322113
1607254255136233091,-8.52050018311,-5.20968341827,1.57337367535
1607254255144140005,-8.52158164978,-5.20956993103,1.57309997082
1607254255146156072,-8.52268886566,-5.20945692062,1.57280373573
1607254255151226997,-8.52381801605,-5.20934152603,1.57249760628
1607254255156759977,-8.52495956421,-5.20922422409,1.57217931747
1607254255175889015,-8.52557945251,-5.20841932297,1.57275879383
1607254255176239967,-8.52675056458,-5.20827770233,1.57243347168
1607254255176350116,-8.52794647217,-5.208132267,1.5721000433
1607254255185507059,-8.52915859222,-5.20798635483,1.5717561245
1607254255185811042,-8.53039169312,-5.20783805847,1.57140100002
1607254255186070919,-8.53163719177,-5.20769166946,1.57103145123
1607254255196270942,-8.53365898132,-5.20812702179,1.57059013844
1607254255197320938,-8.53495883942,-5.20799255371,1.57020485401
1607254255201215982,-8.53627109528,-5.20786333084,1.56980288029
1607254255209609031,-8.53760623932,-5.20772981644,1.56939041615
1607254255211210966,-8.5389585495,-5.20759630203,1.5689637661
1607254255216183900,-8.54033946991,-5.20746278763,1.56851100922
1607254255221185922,-8.54173946381,-5.2073302269,1.56805145741
1607254255228941917,-8.54258728027,-5.20796108246,1.568354249
1607254255231129884,-8.54403400421,-5.20784425735,1.56787359715
1607254255236119985,-8.54550933838,-5.20773267746,1.56739735603
1607254255243151903,-8.54700279236,-5.20761919022,1.56689894199
1607254255245985031,-8.5485200882,-5.20750665665,1.56638836861
1607254255251415967,-8.55006313324,-5.20739173889,1.56586945057
1607254255256335973,-8.5500125885,-5.20793533325,1.56598770618
1607254255262207984,-8.55157375336,-5.20783805847,1.56547617912
1607254255266236066,-8.55316352844,-5.20773124695,1.56496620178
1607254255271233081,-8.55477714539,-5.20762825012,1.56443893909
1607254255276894092,-8.55641460419,-5.20752429962,1.56390225887
1607254255281136989,-8.55808925629,-5.20742034912,1.56335103512
1607254255286026954,-8.55978775024,-5.20731496811,1.5627938509
1607254255295345067,-8.56151580811,-5.20720863342,1.5622279644
1607254255296011924,-8.5614862442,-5.20753669739,1.5631172657
1607254255301136970,-8.56325817108,-5.20743227005,1.56256055832
1607254255309478998,-8.56505775452,-5.20732736588,1.56199705601
1607254255311243057,-8.56688594818,-5.20721912384,1.561439991
1607254255316077947,-8.56874752045,-5.20710945129,1.56087219715
1607254255321235895,-8.57064437866,-5.20699691772,1.56029975414
1607254255329411983,-8.57232379913,-5.20711326599,1.56125092506
1607254255331000089,-8.57429504395,-5.20699214935,1.56073737144
1607254255336018085,-8.57630157471,-5.20687055588,1.56020963192
1607254255343502044,-8.57834148407,-5.20674467087,1.55968248844
1607254255346324920,-8.58043575287,-5.20661687851,1.55916380882
1607254255351249933,-8.58255958557,-5.20648431778,1.55864262581
1607254255356087923,-8.5847196579,-5.20634889603,1.55812489986
1607254255362195014,-8.58722305298,-5.20596170425,1.55855619907
1607254255366234064,-8.58947086334,-5.20580244064,1.55807495117
1607254255371290922,-8.59175777435,-5.20563840866,1.55759727955
1607254255377080917,-8.59409809113,-5.20546245575,1.55710566044
1607254255381263971,-8.59647083282,-5.20528268814,1.55662214756
1607254255389244079,-8.59888267517,-5.20509624481,1.55613839626
1607254255395951986,-8.60132884979,-5.20489549637,1.55565190315
1607254255396277904,-8.60274505615,-5.20510673523,1.5565379858
1607254255401171922,-8.60525417328,-5.20489168167,1.55608510971
1607254255410465002,-8.60778999329,-5.20466566086,1.55564391613
1607254255411178112,-8.61036968231,-5.20443201065,1.55519986153
1607254255416462898,-8.61298370361,-5.20419025421,1.55475890636
1607254255421880006,-8.61563396454,-5.20393896103,1.55432093143
1607254255442739963,-8.61697292328,-5.20456123352,1.55552923679
1607254255443124055,-8.61967754364,-5.20430469513,1.555154562
1607254255443239927,-8.62241840363,-5.20403957367,1.5547901392
1607254255454421997,-8.62519836426,-5.20377445221,1.55444562435
1607254255454796075,-8.62801742554,-5.20349597931,1.55409896374
1607254255454912900,-8.63087463379,-5.20320940018,1.55376029015
1607254255456125020,-8.63377094269,-5.20292377472,1.55343735218
1607254255463329076,-8.63565349579,-5.2039680481,1.55371415615
1607254255466244935,-8.63861465454,-5.20369720459,1.55341720581
1607254255471369981,-8.64160346985,-5.20343494415,1.55314791203
1607254255476567029,-8.64463710785,-5.2031621933,1.55288147926
1607254255481229066,-8.64770889282,-5.20288658142,1.55262768269
1607254255486171960,-8.65080356598,-5.20261859894,1.55239498615
1607254255494045019,-8.65201759338,-5.20330953598,1.55381369591
1607254255496053934,-8.65513038635,-5.20306062698,1.55365848541
1607254255501243114,-8.65827083588,-5.20284128189,1.55348241329
1607254255521327018,-8.66144371033,-5.20261335373,1.55333518982
1607254255521692991,-8.66464710236,-5.20239114761,1.55319571495
1607254255521802902,-8.66788005829,-5.20217561722,1.55306768417
1607254255522058010,-8.67109870911,-5.2020149231,1.55294156075
1607254255540041923,-8.6725320816,-5.20252895355,1.55426776409
1607254255540514945,-8.67577171326,-5.20240068436,1.55419778824
1607254255540693998,-8.67891693115,-5.20231580734,1.55425179005
1607254255548564910,-8.68212795258,-5.20223617554,1.55427324772
1607254255549045085,-8.68533802032,-5.2021780014,1.55432295799
1607254255551099061,-8.68849658966,-5.2021446228,1.55448162556
1607254255556314945,-8.69166660309,-5.20213031769,1.55465531349
1607254255562056064,-8.69277095795,-5.20371055603,1.55455303192
1607254255566484928,-8.69583034515,-5.20380401611,1.55480968952
1607254255571281909,-8.69889068604,-5.20390939713,1.55512797832
1607254255576896905,-8.70194149017,-5.20404052734,1.55549097061
1607254255581218004,-8.70499992371,-5.20421075821,1.55580508709
1607254255586239099,-8.70804023743,-5.20440530777,1.55617249012
1607254255595319032,-8.71076869965,-5.20579433441,1.55740225315
1607254255596221923,-8.7137670517,-5.20606994629,1.5577082634
1607254255601284027,-8.7167596817,-5.2063794136,1.5580470562
1607254255609941959,-8.71974277496,-5.20671701431,1.55838239193
1607254255611291885,-8.72270965576,-5.20708227158,1.5587143898
1607254255616070032,-8.72569084167,-5.20746326447,1.55899202824
1607254255621407032,-8.72865390778,-5.20787525177,1.55928385258
1607254255628721952,-8.72920227051,-5.20931243896,1.56025445461
1607254255631227970,-8.73216819763,-5.20977735519,1.56050920486
1607254255636224985,-8.73509597778,-5.21027612686,1.56076204777
1607254255655955076,-8.73802566528,-5.21079683304,1.56100010872
1607254255656411886,-8.74102115631,-5.21132659912,1.56124317646
1607254255657001018,-8.74400997162,-5.2118806839,1.5614695549
1607254255657254934,-8.74702262878,-5.21245288849,1.56168532372
1607254255671262025,-8.74927520752,-5.21577262878,1.55937993526
1607254255671574115,-8.75239086151,-5.2164273262,1.55952823162
1607254255672168970,-8.75553607941,-5.2170958519,1.55967235565
1607254255679215908,-8.75874710083,-5.21776771545,1.55986428261
1607254255681265115,-8.76199150085,-5.21845340729,1.56003892422
1607254255686144113,-8.7652797699,-5.2191491127,1.5602196455
1607254255694967031,-8.76861763,-5.21983480453,1.56044852734
1607254255695988893,-8.77306461334,-5.22171401978,1.55852138996
1607254255701451063,-8.77652645111,-5.22245693207,1.55867099762
1607254255721180915,-8.7800359726,-5.2232093811,1.55882716179
1607254255721606016,-8.78346824646,-5.22384357452,1.55920612812
1607254255721729040,-8.78702449799,-5.22456789017,1.55946218967
1607254255721973896,-8.79061412811,-5.22529268265,1.55974054337
1607254255735960006,-8.79427146912,-5.22632837296,1.56018197536
1607254255736315965,-8.79794120789,-5.22705364227,1.56051647663
1607254255736560106,-8.8016462326,-5.22777938843,1.56087112427
1607254255747684955,-8.80474376678,-5.22835302353,1.56130743027
1607254255747993946,-8.80829524994,-5.22902011871,1.56172168255
1607254255751351118,-8.81184196472,-5.22967529297,1.56216084957
1607254255756359100,-8.81530952454,-5.23029565811,1.56262409687
1607254255764352083,-8.81729602814,-5.23052978516,1.56483387947
1607254255766305923,-8.82066249847,-5.23110961914,1.56540548801
1607254255771532058,-8.82390880585,-5.23164463043,1.5659788847
1607254255777986049,-8.82716274261,-5.23216962814,1.566583395
1607254255781393051,-8.83037471771,-5.23267126083,1.56720888615
1607254255789216041,-8.83352851868,-5.23314762115,1.56780087948
1607254255796997070,-8.83533668518,-5.23369121552,1.56951284409
1607254255797314882,-8.83835411072,-5.23411989212,1.57014775276
1607254255801407098,-8.84132194519,-5.23452615738,1.57078909874
1607254255811537981,-8.84426116943,-5.23491859436,1.57135725021
1607254255811851978,-8.84714508057,-5.23528289795,1.57196211815
1607254255816384077,-8.84998416901,-5.23562526703,1.57256090641
1607254255821540117,-8.85280799866,-5.23596096039,1.57314038277
1607254255829942941,-8.85302257538,-5.23511838913,1.57777583599
1607254255831234931,-8.85572528839,-5.23539066315,1.57842457294
1607254255836395978,-8.85840606689,-5.23566675186,1.57904458046
1607254255844225883,-8.86104202271,-5.23591756821,1.57966160774
1607254255846266031,-8.86364269257,-5.23615455627,1.58026516438
1607254255851294994,-8.86622524261,-5.23639154434,1.58082318306
1607254255856290102,-8.86876964569,-5.23661327362,1.5813741684
1607254255863991975,-8.86980724335,-5.23669719696,1.58474600315
1607254255866379976,-8.87228965759,-5.23688650131,1.58524847031
1607254255871503114,-8.87473011017,-5.23707199097,1.58574461937
1607254255877650976,-8.87714004517,-5.23724460602,1.58620607853
1607254255881469011,-8.87950992584,-5.23741579056,1.58661937714
1607254255886620998,-8.88185596466,-5.23757171631,1.58700335026
1607254255908773899,-8.88174724579,-5.237865448,1.58839225769
1607254255909178018,-8.88398551941,-5.23801231384,1.58871912956
1607254255909296989,-8.88620948792,-5.23817014694,1.58899879456
1607254255920341968,-8.88840007782,-5.23830842972,1.58924484253
1607254255920759916,-8.89056396484,-5.23844003677,1.58945262432
1607254255920919895,-8.89272594452,-5.23858070374,1.58962643147
1607254255921216964,-8.89485645294,-5.23871231079,1.58976078033
1607254255934626102,-8.89696598053,-5.23884248734,1.58985733986
1607254255935129880,-8.90011501312,-5.24001216888,1.58978521824
1607254255936487913,-8.90226364136,-5.24018192291,1.58980488777
1607254255946065902,-8.90440273285,-5.24035263062,1.58978796005
1607254255946377038,-8.90655899048,-5.24052190781,1.58976066113
1607254255951364040,-8.9086971283,-5.24069309235,1.58968997002
1607254255956269979,-8.91082859039,-5.2408657074,1.58959233761
1607254255961147069,-8.91366863251,-5.24126672745,1.58886289597
1607254255966331958,-8.91582012177,-5.24144506454,1.5886849165
1607254255971972942,-8.91796779633,-5.24162387848,1.58847773075
1607254255976614952,-8.92016792297,-5.24171447754,1.58839714527
1607254255981146097,-8.92232894897,-5.24185705185,1.58819401264
1607254255986387014,-8.92449092865,-5.2419924736,1.58797359467
1607254255994163990,-8.92699813843,-5.24342393875,1.58803784847
1607254255996176004,-8.9291639328,-5.24356079102,1.5878264904
1607254256001487970,-8.93133354187,-5.24369955063,1.58759391308
1607254256021212100,-8.93350505829,-5.24382781982,1.5873490572
1607254256021527051,-8.93569469452,-5.24393844604,1.5870872736
1607254256021862030,-8.9378824234,-5.24403953552,1.58681404591
1607254256022097110,-8.940076828,-5.24412870407,1.5865278244
1607254256039664030,-8.94250869751,-5.24464416504,1.58677923679
1607254256039979934,-8.94474029541,-5.2447142601,1.58645415306
1607254256040216922,-8.94698619843,-5.24476957321,1.58611178398
1607254256046644926,-8.94924163818,-5.24481582642,1.58577132225
1607254256047019004,-8.95150852203,-5.24484872818,1.58541119099
1607254256051342010,-8.953789711,-5.24486970901,1.58503878117
1607254256056166887,-8.95852184296,-5.24495077133,1.58471083641
1607254256061521053,-8.96086597443,-5.24495220184,1.58432757854
1607254256066154003,-8.96322059631,-5.24494075775,1.58393466473
1607254256071597099,-8.96562004089,-5.2449555397,1.58364081383
1607254256076762914,-8.96801376343,-5.24493503571,1.58326721191
1607254256081443071,-8.9704208374,-5.24490499496,1.58289265633
1607254256086524009,-8.97284126282,-5.24486589432,1.58251655102
1607254256109870910,-8.97600078583,-5.24592447281,1.58424842358
1607254256110194921,-8.97844982147,-5.24590492249,1.58395969868
1607254256110434055,-8.98090648651,-5.2458782196,1.58367717266
1607254256122576951,-8.98336410522,-5.24584436417,1.58338606358
1607254256123029947,-8.9858379364,-5.24580192566,1.58310091496
1607254256123155117,-8.98831939697,-5.24575138092,1.58281815052
1607254256123261928,-8.99081325531,-5.24569606781,1.582508564
1607254256132513046,-8.99440574646,-5.24595165253,1.58493673801
1607254256132822036,-8.99695301056,-5.24588727951,1.58466911316
1607254256136393070,-8.99949550629,-5.24582338333,1.58436858654
1607254256155018091,-9.00204944611,-5.24575185776,1.58407342434
1607254256155365943,-9.0046081543,-5.24567556381,1.58376896381
1607254256155981063,-9.00716495514,-5.24559783936,1.58344995975
1607254256157042980,-9.01016235352,-5.24586820602,1.58555197716
1607254256170608997,-9.01273155212,-5.24579572678,1.58527553082
1607254256170990943,-9.0153169632,-5.24570941925,1.5849763155
1607254256171260118,-9.01790142059,-5.24562072754,1.58466088772
1607254256178724050,-9.02049064636,-5.24552631378,1.58433043957
1607254256181463956,-9.02308750153,-5.24542617798,1.58398914337
1607254256189245939,-9.02569293976,-5.24529838562,1.58363556862
1607254256194633960,-9.02945423126,-5.24604892731,1.58462965488
1607254256196151018,-9.03210353851,-5.24593734741,1.58430063725
1607254256201286077,-9.03476715088,-5.24581193924,1.58397328854
1607254256210743904,-9.03743171692,-5.24567890167,1.58362495899
1607254256211604118,-9.04010295868,-5.24553585052,1.58326303959
1607254256216222047,-9.04277610779,-5.24537944794,1.58288359642
1607254256221347093,-9.04545783997,-5.24521350861,1.5824958086
1607254256228703975,-9.04816246033,-5.24582529068,1.58237850666
1607254256231142044,-9.05086517334,-5.24566459656,1.58198702335
1607254256236562967,-9.05356502533,-5.24549245834,1.58157944679
1607254256242114067,-9.05627059937,-5.24531126022,1.58116304874
1607254256246283054,-9.0589838028,-5.24512481689,1.58072900772
1607254256251437902,-9.06170749664,-5.24492788315,1.58028841019
1607254256256242990,-9.06444263458,-5.2447218895,1.57983613014
1607254256262029886,-9.06701087952,-5.24620723724,1.58015155792
1607254256266313076,-9.06978225708,-5.24603223801,1.57969999313
1607254256271450042,-9.07256698608,-5.24584913254,1.57923722267
1607254256276657104,-9.0753660202,-5.24565792084,1.57876193523
1607254256282746076,-9.0781955719,-5.24545383453,1.5782943964
1607254256286300897,-9.08103179932,-5.24524307251,1.57780897617
1607254256294327974,-9.08388233185,-5.24502420425,1.57731854916
1607254256296437978,-9.08741474152,-5.24551868439,1.5771484375
1607254256301316976,-9.09032726288,-5.2452917099,1.57665777206
1607254256321494102,-9.09326076508,-5.24505329132,1.57615947723
1607254256321899890,-9.09623146057,-5.24479961395,1.57564115524
1607254256322062015,-9.09921836853,-5.244535923,1.57511770725
1607254256322387933,-9.10222816467,-5.24425983429,1.5745831728
1607254256334191083,-9.10565185547,-5.24471855164,1.57558012009
1607254256334553956,-9.10874652863,-5.24442720413,1.57504010201
1607254256340460062,-9.11187076569,-5.24412298203,1.5744843483
1607254256343720912,-9.11502075195,-5.24379301071,1.57392644882
1607254256346296072,-9.11819553375,-5.24345254898,1.57335162163
1607254256351389884,-9.12139511108,-5.24309635162,1.57276570797
1607254256356705904,-9.12278938293,-5.24296188354,1.57303214073
1607254256362911939,-9.1259765625,-5.24256229401,1.57248580456
1607254256366305112,-9.12918663025,-5.24214267731,1.57194077969
1607254256371345996,-9.13241863251,-5.24170207977,1.57139694691
1607254256376897096,-9.13566398621,-5.2412481308,1.57087051868
1607254256381444931,-9.13893699646,-5.24077033997,1.57034015656
1607254256386549949,-9.14223384857,-5.24027252197,1.5698132515
1607254256393899917,-9.14297008514,-5.23983573914,1.57123696804
1607254256396337985,-9.14625358582,-5.23930931091,1.5707706213
1607254256401297092,-9.149559021,-5.23876476288,1.57031106949
1607254256409769058,-9.15287685394,-5.2381978035,1.56988489628
1607254256411478042,-9.15621948242,-5.23761415482,1.56945610046
1607254256416553974,-9.15958023071,-5.23701238632,1.569039464
1607254256421444892,-9.16293334961,-5.23639583588,1.56865203381
1607254256428100109,-9.16600799561,-5.23577308655,1.57003188133
1607254256431313991,-9.1693983078,-5.23511362076,1.56970775127
1607254256436450958,-9.17280578613,-5.23446464539,1.56934058666
1607254256442040920,-9.17622756958,-5.23378801346,1.56900763512
1607254256446593999,-9.17967033386,-5.23309707642,1.56867861748
1607254256451725959,-9.18311882019,-5.23240804672,1.56834256649
1607254256456614971,-9.18708515167,-5.23278427124,1.56958770752
1607254256462785005,-9.19056797028,-5.23210954666,1.56929969788
1607254256466341018,-9.19406318665,-5.23142623901,1.569008708
1607254256471534013,-9.19745635986,-5.23069810867,1.56888604164
1607254256476758003,-9.20090389252,-5.22997760773,1.56869506836
1607254256481472969,-9.20434379578,-5.2292432785,1.56853163242
1607254256486591100,-9.20772266388,-5.2284989357,1.56846725941
1607254256495830059,-9.21041107178,-5.22942113876,1.56799006462
1607254256496810913,-9.21370983124,-5.22869157791,1.56801331043
1607254256501559972,-9.21701145172,-5.22799634933,1.56805717945
1607254256510119915,-9.22028446198,-5.22727060318,1.56815111637
1607254256511609077,-9.22354125977,-5.22653961182,1.56828343868
1607254256516437053,-9.22677898407,-5.22580766678,1.56842470169
1607254256521347999,-9.23000144958,-5.22506999969,1.56861102581
1607254256529145002,-9.23278903961,-5.22466802597,1.56930446625
1607254256531393051,-9.23595046997,-5.22391700745,1.56952238083
1607254256536484956,-9.23910427094,-5.22316837311,1.56977939606
1607254256543092012,-9.24223709106,-5.22241210938,1.57006168365
1607254256546677112,-9.24533653259,-5.22164154053,1.57036304474
1607254256551475048,-9.24841976166,-5.22086429596,1.57069301605
1607254256556967973,-9.25024223328,-5.21975946426,1.57078754902
1607254256562300920,-9.25323486328,-5.21894884109,1.57115805149
1607254256567718982,-9.2562122345,-5.21814393997,1.57154262066
1607254256571398019,-9.25916481018,-5.21732330322,1.57196044922
1607254256577121973,-9.2620973587,-5.21649599075,1.57240533829
1607254256581260919,-9.26501941681,-5.21567392349,1.57285928726
1607254256594979047,-9.26791763306,-5.21484279633,1.57334065437
1607254256595352888,-9.27079582214,-5.21400785446,1.57384288311
1607254256598712921,-9.27526187897,-5.21465349197,1.57257628441
1607254256601586103,-9.27814006805,-5.2138671875,1.57303833961
1607254256609622001,-9.28100395203,-5.2130818367,1.57351255417
1607254256611381053,-9.28386688232,-5.21230840683,1.57397818565
1607254256616417884,-9.28671073914,-5.2115354538,1.57446169853
1607254256621388912,-9.28954315186,-5.2107667923,1.57495260239
1607254256628422975,-9.29198646545,-5.21153020859,1.57678818703
1607254256631239891,-9.29480457306,-5.21082019806,1.5773024559
1607254256636594057,-9.29761886597,-5.2101149559,1.57781922817
1607254256643331050,-9.30042362213,-5.20942020416,1.57831525803
1607254256646447896,-9.30321502686,-5.20873212814,1.57881557941
1607254256651376008,-9.30599498749,-5.20805215836,1.57931041718
1607254256656513929,-9.3087644577,-5.2073802948,1.57980179787
1607254256662586927,-9.31247234344,-5.20683002472,1.58335566521
1607254256666805028,-9.31523704529,-5.20617961884,1.58388745785
1607254256671581029,-9.31798744202,-5.20553731918,1.58441019058
1607254256677405118,-9.32070064545,-5.20492267609,1.58491778374
1607254256681524038,-9.32341384888,-5.20430755615,1.58541274071
1607254256686410903,-9.32611179352,-5.20370340347,1.58589434624
1607254256695713996,-9.32795810699,-5.20416116714,1.5882730484
1607254256696706056,-9.33058261871,-5.20361757278,1.58878982067
1607254256701395988,-9.33318710327,-5.20308876038,1.58929753304
1607254256710041046,-9.33575057983,-5.20258951187,1.58980166912
1607254256711411952,-9.3383026123,-5.20209980011,1.59029471874
1607254256716434001,-9.34082984924,-5.20162725449,1.59078156948
1607254256721532106,-9.34334278107,-5.2011680603,1.59123158455
1607254256729228019,-9.34696960449,-5.20022296906,1.59262263775
1607254256731348991,-9.34946632385,-5.19977521896,1.59305787086
1607254256736464023,-9.35194301605,-5.19934415817,1.5934804678
1607254256743896961,-9.35438251495,-5.19890975952,1.59384250641
1607254256746525049,-9.35680484772,-5.19850111008,1.59420514107
1607254256751602888,-9.35920238495,-5.19810581207,1.59454238415
1607254256756604909,-9.36349964142,-5.19848155975,1.59447479248
1607254256762375116,-9.36585617065,-5.19810533524,1.59473288059
1607254256766402006,-9.36818695068,-5.19773721695,1.59496200085
1607254256771461009,-9.37050533295,-5.19737386703,1.59515953064
1607254256777470111,-9.37279319763,-5.19702100754,1.59533178806
1607254256781485080,-9.37505722046,-5.19667673111,1.59547495842
1607254256786557912,-9.37731552124,-5.19633293152,1.59559559822
1607254256794874906,-9.3804063797,-5.19660711288,1.59569466114
1607254256796291112,-9.38263988495,-5.1962890625,1.5957672596
1607254256801491022,-9.38486099243,-5.19594764709,1.59586966038
1607254256809504985,-9.38705539703,-5.19562244415,1.59592747688
1607254256811774969,-9.3892288208,-5.19529867172,1.59596931934
1607254256816756010,-9.39140224457,-5.1949634552,1.59601247311
1607254256821419000,-9.3935546875,-5.1946310997,1.59603714943
1607254256828501939,-9.39406871796,-5.19449520111,1.59482717514
1607254256831286907,-9.3961648941,-5.19414758682,1.59479057789
1607254256836347103,-9.39825153351,-5.19379901886,1.59473848343
1607254256843350887,-9.40032482147,-5.19344758987,1.59467887878
1607254256846595048,-9.40238380432,-5.1930937767,1.59460949898
1607254256851474046,-9.40445995331,-5.19273757935,1.59449493885
1607254256856412887,-9.40645027161,-5.19313764572,1.59574782848
1607254256862447977,-9.40851306915,-5.19278860092,1.5956004858
1607254256866534948,-9.41058635712,-5.19241523743,1.59541296959
1607254256871433973,-9.41265010834,-5.19204759598,1.59520995617
1607254256877017021,-9.41471195221,-5.19167327881,1.59498071671
1607254256881715059,-9.41676139832,-5.19129610062,1.59473502636
1607254256886462926,-9.41881084442,-5.19091176987,1.59446179867
1607254256894913911,-9.42085552216,-5.19052267075,1.59416759014
1607254256896673917,-9.42462539673,-5.19143819809,1.59551334381
1607254256901599884,-9.42669868469,-5.19106721878,1.59523379803
1607254256910078048,-9.42876815796,-5.19069004059,1.59493088722
1607254256911462068,-9.43083190918,-5.1903090477,1.59461009502
1607254256916713953,-9.4328918457,-5.1899228096,1.59427213669
1607254256921658039,-9.4349489212,-5.18953227997,1.59391844273
1607254256930210113,-9.4386844635,-5.18847131729,1.59410858154
1607254256931458950,-9.44077301025,-5.18803834915,1.59375238419
1607254256936434030,-9.44285011292,-5.1876039505,1.59338104725
1607254256944103956,-9.4449262619,-5.18716430664,1.59299492836
1607254256946382999,-9.44700908661,-5.18671751022,1.59260332584
1607254256951673030,-9.44908618927,-5.18626594543,1.59219479561
1607254256956567049,-9.45116043091,-5.1858086586,1.59177589417
1607254256962903976,-9.45354747772,-5.18664264679,1.5906919241
1607254256966775894,-9.45561599731,-5.18620443344,1.59023225307
1607254256971561908,-9.45768356323,-5.18576145172,1.58976244926
1607254256978097915,-9.45974445343,-5.18531751633,1.58931005001
1607254256981437921,-9.46180725098,-5.18486833572,1.58884203434
1607254256988784074,-9.46386814117,-5.18441581726,1.5883705616
1607254256995877027,-9.46979999542,-5.18538475037,1.58910095692
1607254256996598958,-9.47196388245,-5.18496751785,1.58869433403
1607254257001287937,-9.47413063049,-5.18454933167,1.58828854561
1607254257010190963,-9.47631168365,-5.18414258957,1.58786094189
1607254257011142015,-9.47849369049,-5.18373060226,1.58744430542
1607254257016175985,-9.48068332672,-5.18331956863,1.58702552319
1607254257021203041,-9.48287773132,-5.18291044235,1.58660459518
1607254257029730081,-9.48627090454,-5.18397712708,1.58593201637
1607254257031172990,-9.488489151,-5.1836271286,1.58550822735
1607254257036264896,-9.49071407318,-5.1832818985,1.58508610725
1607254257043632030,-9.49295520782,-5.18291854858,1.58467257023
1607254257046257019,-9.49519443512,-5.18256855011,1.58424675465
1607254257051275014,-9.49743938446,-5.18221950531,1.58381915092
1607254257056271076,-9.49952125549,-5.18298578262,1.5840228796
1607254257062185049,-9.50177574158,-5.18265533447,1.58360135555
1607254257066335916,-9.50403690338,-5.18232393265,1.58318126202
1607254257071348905,-9.50632095337,-5.18198919296,1.58274567127
1607254257077737092,-9.50860500336,-5.18165493011,1.58231723309
1607254257081341028,-9.51089954376,-5.18131971359,1.58188736439
1607254257086426973,-9.51320743561,-5.18097686768,1.58143639565
1607254257097311973,-9.51268291473,-5.18090200424,1.58362996578
1607254257097625970,-9.5149230957,-5.18054962158,1.58320593834
1607254257101492881,-9.51718425751,-5.18019485474,1.58275973797
1607254257110632896,-9.51945304871,-5.17983722687,1.58230829239
1607254257111711978,-9.52173709869,-5.1794757843,1.58184564114
1607254257116611957,-9.52403736115,-5.17911100388,1.58137142658
1607254257121521949,-9.52634525299,-5.17875623703,1.58086931705
1607254257130114078,-9.52848052979,-5.1795501709,1.5814756155
1607254257131453990,-9.53081035614,-5.17921733856,1.58097088337
1607254257136724948,-9.53317070007,-5.17889165878,1.58042216301
1607254257144442081,-9.53554153442,-5.17856168747,1.57987320423
1607254257146733045,-9.53792953491,-5.17823266983,1.57930588722
1607254257151484012,-9.54034137726,-5.17790603638,1.57872521877
1607254257156755924,-9.54563045502,-5.17898368835,1.58048772812
1607254257162765026,-9.54816436768,-5.17869520187,1.5799497366
1607254257166665077,-9.5507068634,-5.1784157753,1.57941353321
1607254257171652078,-9.55327701569,-5.1781334877,1.57885527611
1607254257178013086,-9.5558681488,-5.17785310745,1.57828569412
1607254257181548118,-9.5584821701,-5.17757844925,1.57771015167
1607254257186626911,-9.5611114502,-5.17730569839,1.57711923122
1607254257197377920,-9.56324672699,-5.17697954178,1.57918548584
1607254257197717905,-9.56589221954,-5.17670965195,1.57862389088
1607254257201477050,-9.56855678558,-5.17644071579,1.57805740833
1607254257210434913,-9.57124233246,-5.17617607117,1.57747769356
1607254257211708068,-9.57394886017,-5.17591619492,1.57688295841
1607254257216618061,-9.57668495178,-5.17566823959,1.57627570629
1607254257221591949,-9.57943439484,-5.17542266846,1.57565271854
1607254257229948043,-9.57993507385,-5.17569589615,1.57678294182
1607254257231499910,-9.58266639709,-5.17546653748,1.576166749
1607254257236618041,-9.58542156219,-5.17524528503,1.57553577423
1607254257244915008,-9.58819675446,-5.17502975464,1.57489335537
1607254257246536016,-9.59099388123,-5.17481279373,1.57424867153
1607254257251562118,-9.59381484985,-5.17460155487,1.57358920574
1607254257256710052,-9.59666061401,-5.17439365387,1.5729213953
1607254257262658119,-9.59837818146,-5.17428874969,1.57226455212
1607254257266525983,-9.60122108459,-5.1740694046,1.57157731056
1607254257271462917,-9.60408401489,-5.17385101318,1.57088172436
1607254257277519941,-9.60697650909,-5.17362928391,1.57019436359
1607254257281635999,-9.60988998413,-5.17340946198,1.56949973106
1607254257286501884,-9.61282730103,-5.17318964005,1.56880295277
1607254257298232078,-9.61545467377,-5.17286491394,1.57017147541
1607254257298563957,-9.61844539642,-5.17263460159,1.56953215599
1607254257301625967,-9.62145996094,-5.17240381241,1.56889081001
1607254257311243057,-9.62449645996,-5.17217302322,1.56824851036
1607254257311736106,-9.62765026093,-5.17189264297,1.56762444973
1607254257316602945,-9.63077449799,-5.17164134979,1.56698060036
1607254257321511030,-9.63393306732,-5.17138624191,1.56633520126
1607254257328907966,-9.63666439056,-5.17177438736,1.56653177738
1607254257331902027,-9.63984203339,-5.17152023315,1.56592440605
1607254257336564064,-9.64305400848,-5.17126178741,1.56531763077
1607254257345056056,-9.64623832703,-5.17100334167,1.56483149529
1607254257346591949,-9.6494808197,-5.17074012756,1.56427001953
1607254257351562976,-9.65274810791,-5.17047405243,1.56371748447
1607254257356717109,-9.65572547913,-5.171251297,1.56365728378
1607254257363334894,-9.65898513794,-5.17101192474,1.56315779686
1607254257366545915,-9.66226196289,-5.170773983,1.56267309189
1607254257371604919,-9.66550254822,-5.17055034637,1.56226181984
1607254257377687931,-9.66878223419,-5.17032146454,1.56184351444
1607254257381712913,-9.67207050323,-5.17009544373,1.56145036221
1607254257388987064,-9.67534255981,-5.16988706589,1.5611218214
1607254257398514032,-9.6785774231,-5.17269182205,1.56075012684
1607254257398812055,-9.68184947968,-5.17259216309,1.56051111221
1607254257401632070,-9.68512153625,-5.17250108719,1.56031107903
1607254257409215927,-9.68832206726,-5.17241716385,1.5601786375
1607254257411576986,-9.69155788422,-5.1723408699,1.56006801128
1607254257416656970,-9.69478416443,-5.17227220535,1.5600001812
1607254257421506881,-9.69798851013,-5.17222261429,1.5599886179
1607254257427664995,-9.70139026642,-5.17237281799,1.55973184109
1607254257431534051,-9.70456886292,-5.17235088348,1.55980753899
1607254257436544895,-9.70769309998,-5.17231464386,1.55993855
1607254257441586971,-9.71082019806,-5.17229938507,1.56011390686
1607254257446770906,-9.71393013,-5.17229127884,1.56033742428
1607254257454107046,-9.71704864502,-5.17230272293,1.56056141853
1607254257456655025,-9.72065639496,-5.17187976837,1.56228113174
1607254257462280988,-9.72375392914,-5.17189788818,1.56262087822
1607254257466631889,-9.72688484192,-5.17195463181,1.56291282177
1607254257471426010,-9.72998714447,-5.17201375961,1.56326723099
1607254257476887941,-9.73308467865,-5.17208909988,1.56364250183
1607254257481547117,-9.73620414734,-5.17217969894,1.56397068501
1607254257487124919,-9.73931407928,-5.17228746414,1.56433069706
1607254257495981931,-9.74242591858,-5.17241239548,1.56469297409
1607254257496788024,-9.74553966522,-5.17255353928,1.5650575161
1607254257501689910,-9.74972248077,-5.1719045639,1.56702840328
1607254257509258985,-9.75286483765,-5.17203903198,1.56739711761
1607254257512315034,-9.75600814819,-5.17218637466,1.56776726246
1607254257516627073,-9.75914669037,-5.17231702805,1.568146348
1607254257521405935,-9.76229000092,-5.17247200012,1.56852054596
1607254257527365922,-9.76543426514,-5.17263507843,1.56889486313
1607254257531562089,-9.76857280731,-5.17277383804,1.56928837299
1607254257536658048,-9.76590156555,-5.17273330688,1.57123029232
1607254257541606903,-9.76884174347,-5.17287111282,1.57171654701
1607254257546598911,-9.77173233032,-5.17294597626,1.5722464323
1607254257551628112,-9.77463531494,-5.17304229736,1.57276964188
1607254257556580066,-9.77752494812,-5.17312669754,1.57330513
1607254257561976909,-9.7804069519,-5.17317914963,1.5738670826
1607254257566695928,-9.7801656723,-5.17468547821,1.57325613499
1607254257571438074,-9.78292942047,-5.17475795746,1.57383739948
1607254257577225923,-9.78571796417,-5.17484760284,1.57444608212
1607254257581505060,-9.78848361969,-5.17490816116,1.57506883144
1607254257586289882,-9.79124546051,-5.1749587059,1.5757163763
1607254257595803976,-9.79400348663,-5.17499828339,1.576384902
1607254257596539020,-9.79679298401,-5.17504072189,1.57696628571
1607254257601696968,-9.79916667938,-5.17421674728,1.57707262039
1607254257609046936,-9.80190944672,-5.17421388626,1.57767915726
1607254257611562967,-9.80463123322,-5.17420625687,1.57821059227
1607254257616533994,-9.80736541748,-5.17418909073,1.57877004147
1607254257621510028,-9.81010055542,-5.17416381836,1.57931649685
1607254257627569913,-9.81279563904,-5.17411708832,1.5798163414
1607254257631656885,-9.81858158112,-5.17374229431,1.58026087284
1607254257636807918,-9.82130146027,-5.17366027832,1.58073830605
1607254257642575025,-9.82398700714,-5.17357158661,1.58116817474
1607254257646528959,-9.82666969299,-5.17346906662,1.58158588409
1607254257651638031,-9.82933807373,-5.17335557938,1.58197653294
1607254257656646013,-9.83198165894,-5.17324304581,1.58234095573
1607254257661992073,-9.83791446686,-5.17277622223,1.58281815052
1607254257666827917,-9.84057235718,-5.17263793945,1.58315777779
1607254257671711921,-9.84318065643,-5.17251300812,1.58353078365
1607254257676843881,-9.8457775116,-5.17237329483,1.5838624239
1607254257681567907,-9.84834766388,-5.17223072052,1.58418023586
1607254257686686038,-9.85089206696,-5.17208480835,1.58448433876
1607254257694981098,-9.85341930389,-5.17195272446,1.58480036259
1607254257696398019,-9.85951423645,-5.17169809341,1.58479070663
1607254257701611995,-9.86204433441,-5.17155694962,1.58510124683
1607254257709455013,-9.86452770233,-5.17142486572,1.58536779881
1607254257711735010,-9.86699676514,-5.17128944397,1.58564162254
1607254257716691970,-9.86943721771,-5.17115545273,1.5859028101
1607254257721744060,-9.87183856964,-5.17101478577,1.58614575863
1607254257729773998,-9.87421321869,-5.17087745667,1.58637559414
1607254257731668949,-9.8796043396,-5.17123842239,1.58652102947
1607254257736720085,-9.88195037842,-5.17108201981,1.58671236038
1607254257744369983,-9.88426017761,-5.17093706131,1.58689320087
1607254257746545076,-9.88653469086,-5.17078733444,1.58705854416
1607254257751717090,-9.8887720108,-5.17063522339,1.58721590042
1607254257756715059,-9.89097690582,-5.17047643661,1.58735239506
1607254257763308048,-9.89567279816,-5.17127847672,1.58642542362
1607254257766726970,-9.89785385132,-5.17112255096,1.5865020752
1607254257771707057,-9.9000120163,-5.17096424103,1.58656597137
1607254257777240991,-9.90213680267,-5.17079925537,1.58661317825
1607254257782040119,-9.9042301178,-5.17062616348,1.5866433382
1607254257786784887,-9.90636444092,-5.17048597336,1.58667016029
1607254257798197984,-9.90844631195,-5.1703248024,1.58667647839
1607254257798504114,-9.91329479218,-5.17238759995,1.58499979973
1607254257801697969,-9.91547012329,-5.17230224609,1.58496260643
1607254257810760974,-9.91759777069,-5.17221593857,1.58490204811
1607254257811763048,-9.91971683502,-5.17213153839,1.58483290672
1607254257816669940,-9.92185020447,-5.17205142975,1.58475708961
1607254257821635961,-9.92397499084,-5.17197179794,1.58467233181
1607254257830240964,-9.92610168457,-5.17189407349,1.58457911015
1607254257831537008,-9.93027687073,-5.1732378006,1.58350753784
1607254257836683034,-9.93247318268,-5.17319345474,1.58337712288
1607254257844732046,-9.9346818924,-5.17314624786,1.58323347569
1607254257846591949,-9.93690872192,-5.17308282852,1.58309030533
1607254257851727008,-9.9391450882,-5.17301940918,1.58293139935
1607254257856703996,-9.94139385223,-5.17294979095,1.58276081085
1607254257863857984,-9.94365596771,-5.17286872864,1.58257591724
1607254257866533994,-9.94829368591,-5.17306280136,1.58235704899
1607254257871510982,-9.95063877106,-5.17297029495,1.58215713501
1607254257877480030,-9.95300006866,-5.1728682518,1.5819453001
1607254257881715059,-9.95541000366,-5.17275857925,1.58168768883
1607254257886534929,-9.95782375336,-5.1726398468,1.58143162727
1607254257897218942,-9.96025943756,-5.17251205444,1.58115541935
1607254257897527933,-9.96447753906,-5.17392683029,1.5813575983
1607254257901618003,-9.9669675827,-5.17382955551,1.58106946945
1607254257910872936,-9.96947669983,-5.17372560501,1.58076643944
1607254257912050008,-9.97201251984,-5.17361450195,1.58045959473
1607254257916913032,-9.97456550598,-5.17349672318,1.58013319969
1607254257921672105,-9.97713756561,-5.173371315,1.5797919035
1607254257930100917,-9.9797334671,-5.17324399948,1.57944834232
1607254257931459903,-9.98366832733,-5.17357730865,1.57944905758
1607254257936706066,-9.98633480072,-5.17345285416,1.57910549641
1607254257944515943,-9.98900413513,-5.17332839966,1.57875859737
1607254257946732997,-9.99170303345,-5.1731967926,1.57840275764
1607254257951668024,-9.99442481995,-5.17306089401,1.57804143429
1607254257956769943,-9.99717330933,-5.1729183197,1.57764315605
1607254257963546991,-10.0000934601,-5.1733045578,1.57864749432
1607254257966576099,-10.0028686523,-5.17316627502,1.57825267315
1607254257971577882,-10.0056648254,-5.17302417755,1.57784175873
1607254257977256059,-10.0084838867,-5.17287492752,1.57736814022
1607254257981698989,-10.0113182068,-5.17272186279,1.57689809799
1607254257986633062,-10.014172554,-5.17256402969,1.57640564442
1607254257996155977,-10.01704216,-5.1723947525,1.57587218285
1607254257997025012,-10.0208997726,-5.17232942581,1.57684874535
1607254258001642942,-10.0238218307,-5.17214393616,1.57630765438
1607254258010735034,-10.026766777,-5.17194223404,1.57576608658
1607254258011883974,-10.0297279358,-5.17173719406,1.57518351078
1607254258016592979,-10.032708168,-5.17152357101,1.57457494736
1607254258021533012,-10.0357084274,-5.17129230499,1.57394337654
1607254258029896974,-10.0392141342,-5.17110729218,1.57406997681
1607254258031637907,-10.0422554016,-5.17085027695,1.57343482971
1607254258036607980,-10.0453290939,-5.17057561874,1.57276797295
1607254258044496059,-10.0484247208,-5.17029094696,1.57208156586
1607254258046825885,-10.0515432358,-5.16999435425,1.57137024403
1607254258051654100,-10.0546979904,-5.16968393326,1.57063698769
1607254258056706905,-10.0578718185,-5.16936206818,1.56988072395
1607254258063662052,-10.0606632233,-5.16932010651,1.57102644444
1607254258066638946,-10.0638532639,-5.16898488998,1.57030057907
1607254258071795940,-10.0670890808,-5.16861534119,1.56953465939
1607254258077184915,-10.0703477859,-5.16823959351,1.56875133514
1607254258081818103,-10.0736351013,-5.16784858704,1.56794440746
1607254258086714982,-10.0769557953,-5.16743421555,1.56710910797
1607254258096106052,-10.0803031921,-5.16700553894,1.56624948978
1607254258097182035,-10.0834512711,-5.16663694382,1.56730306149
1607254258101852893,-10.0868654251,-5.16616439819,1.56645357609
1607254258111088991,-10.090303421,-5.16567564011,1.56557822227
1607254258111762046,-10.0937671661,-5.16517019272,1.56467986107
1607254258116666078,-10.0972576141,-5.16465330124,1.56377279758
1607254258121721029,-10.100777626,-5.16411924362,1.56283867359
1607254258130076885,-10.1042098999,-5.16344451904,1.56295001507
1607254258131520032,-10.1077804565,-5.16286659241,1.56205165386
1607254258136768102,-10.1113834381,-5.16227579117,1.56112062931
1607254258144609928,-10.1150178909,-5.16166782379,1.5601747036
1607254258146639108,-10.1186923981,-5.16104507446,1.55922019482
1607254258151772022,-10.1223917007,-5.16040563583,1.55825281143
1607254258156884908,-10.126121521,-5.15975046158,1.55727553368
1607254258164174079,-10.1298828125,-5.15907907486,1.55628633499
1607254258167072057,-10.1346759796,-5.15844249725,1.55704879761
1607254258171972036,-10.1385173798,-5.15774726868,1.55610322952
1607254258177242994,-10.1423940659,-5.15703773499,1.55514740944
1607254258181776046,-10.1463193893,-5.15632820129,1.55418646336
1607254258186692953,-10.1502666473,-5.15559959412,1.55320966244
1607254258197190046,-10.1542482376,-5.15485906601,1.55222117901
1607254258197498083,-10.1582536697,-5.15411281586,1.55123496056
1607254258201747894,-10.161986351,-5.15495443344,1.55175316334
1607254258211081027,-10.1660451889,-5.15422773361,1.55082190037
1607254258211924076,-10.170126915,-5.15347290039,1.54993391037
1607254258216700077,-10.1742458344,-5.15271425247,1.54902589321
1607254258221796035,-10.1783971786,-5.15194225311,1.54812276363
1607254258229748964,-10.1825780869,-5.15116643906,1.54726064205
1607254258231754064,-10.1870689392,-5.1511297226,1.54662048817
1607254258236814022,-10.1913022995,-5.15034675598,1.54579722881
1607254258244609117,-10.19556427,-5.14955425262,1.5450104475
1607254258246687889,-10.1998586655,-5.14875078201,1.54423260689
1607254258251609086,-10.2041845322,-5.14793634415,1.54347229004
1607254258257050991,-10.2085409164,-5.14711141586,1.54272842407
1607254258263461112,-10.2113609314,-5.14775753021,1.54294645786
1607254258266772031,-10.2157440186,-5.14695167542,1.54228901863
1607254258271933078,-10.2201576233,-5.14613580704,1.54165279865
1607254258277302026,-10.2246026993,-5.14532518387,1.54103219509
1607254258281789064,-10.2290763855,-5.14449930191,1.54043388367
1607254258286849975,-10.2335796356,-5.14366579056,1.53985512257
1607254258297301054,-10.2380990982,-5.1428565979,1.53926563263
1607254258297604084,-10.2396526337,-5.14471340179,1.53927314281
1607254258301760911,-10.2441644669,-5.14397668839,1.53874504566
1607254258310986042,-10.2485990524,-5.14321947098,1.53827047348
1607254258312227964,-10.2530984879,-5.14247226715,1.53779602051
1607254258316764116,-10.2576026917,-5.14172363281,1.53734302521
1607254258321737051,-10.2620544434,-5.14094495773,1.5370746851
1607254258331104993,-10.2665243149,-5.14016819,1.53680288792
1607254258331521987,-10.2693490982,-5.14062070847,1.53572940826
1607254258336720943,-10.2737321854,-5.13982200623,1.53563213348
1607254258344485998,-10.2781085968,-5.13901948929,1.53558957577
1607254258346817970,-10.2824745178,-5.13820314407,1.5356169939
1607254258351838111,-10.2868394852,-5.13737010956,1.53570723534
1607254258356813907,-10.2912216187,-5.13651800156,1.5357632637
1607254258362853050,-10.2940740585,-5.13641500473,1.53624081612
1607254258366568088,-10.2984437943,-5.13555765152,1.53641211987
1607254258371762037,-10.3027667999,-5.13467025757,1.53654742241
1607254258377170085,-10.3071107864,-5.13377285004,1.53675937653
1607254258381799936,-10.3114471436,-5.13285779953,1.53700208664
1607254258386733055,-10.3157577515,-5.1319360733,1.53725492954
1607254258396666049,-10.3200645447,-5.13099431992,1.53754079342
1607254258396986961,-10.3224916458,-5.12863969803,1.537571311
1607254258401880025,-10.3267402649,-5.12763881683,1.53784286976
1607254258410906076,-10.3309707642,-5.12661933899,1.53814375401
1607254258412187099,-10.3351945877,-5.12558555603,1.53846275806
1607254258417032003,-10.339392662,-5.12455368042,1.53883194923
1607254258421766996,-10.3435878754,-5.12350463867,1.53921616077
1607254258429076910,-10.3477735519,-5.12244606018,1.53962981701
1607254258431732892,-10.3494844437,-5.12134695053,1.54006171227
1607254258436752080,-10.3535709381,-5.12029409409,1.54054546356
1607254258444313049,-10.3576478958,-5.11923456192,1.541061759
1607254258446784973,-10.3617115021,-5.1181678772,1.54160892963
1607254258451708078,-10.3657503128,-5.11711025238,1.54217982292
1607254258456501960,-10.3697805405,-5.11604118347,1.54278635979
1607254258463074922,-10.3729724884,-5.11396408081,1.54315090179
1607254258466284036,-10.3769540787,-5.11292314529,1.54371869564
1607254258471369981,-10.3809127808,-5.11186218262,1.54434382915
1607254258476917982,-10.384850502,-5.11080408096,1.5449898243
1607254258481528043,-10.3887500763,-5.10977077484,1.5456237793
1607254258486390113,-10.3926372528,-5.1087346077,1.54628026485
1607254258495870113,-10.3965034485,-5.10770654678,1.5469442606
1607254258496536970,-10.4003515244,-5.10669612885,1.54756045341
1607254258501528024,-10.4036750793,-5.10639238358,1.54879748821
1607254258511687994,-10.4074659348,-5.10544490814,1.54937386513
1607254258511979103,-10.4112272263,-5.10450553894,1.54991579056
1607254258516529083,-10.4149684906,-5.10357761383,1.55045425892
1607254258521337985,-10.4186849594,-5.10266065598,1.55097603798
1607254258529890060,-10.4223747253,-5.10176372528,1.55150604248
1607254258531286001,-10.4248161316,-5.10239648819,1.55403244495
1607254258536406040,-10.4284486771,-5.10157775879,1.55460751057
1607254258543982028,-10.4320554733,-5.10077190399,1.55517375469
1607254258546598911,-10.4356336594,-5.10001850128,1.55574727058
1607254258551418066,-10.4391937256,-5.09926080704,1.55630588531
1607254258556384086,-10.4427289963,-5.09852170944,1.55685830116
1607254258562402963,-10.4462394714,-5.09782171249,1.55741453171
1607254258566322088,-10.4493656158,-5.09902334213,1.5591455698
1607254258571351051,-10.4528512955,-5.09844207764,1.55973267555
1607254258577218055,-10.4562892914,-5.09791088104,1.56032216549
1607254258581605911,-10.4597129822,-5.09739398956,1.56090760231
1607254258586390018,-10.4631109238,-5.09690570831,1.56149196625
1607254258596281051,-10.46646595,-5.09646177292,1.56206882
1607254258599641084,-10.4698438644,-5.09838628769,1.56427371502
1607254258601389884,-10.473151207,-5.09809064865,1.56487882137
1607254258610199928,-10.4763879776,-5.09781503677,1.56546235085
1607254258611727952,-10.4796066284,-5.09757661819,1.56604456902
1607254258616538047,-10.4827861786,-5.09736824036,1.56661593914
1607254258629586935,-10.4859018326,-5.09715557098,1.56715261936
1607254258630099058,-10.4883813858,-5.0981798172,1.56839060783
1607254258631268978,-10.4914093018,-5.09806776047,1.56891655922
1607254258636729955,-10.4943857193,-5.09797763824,1.56942772865
1607254258643588066,-10.4972829819,-5.09786462784,1.56992375851
1607254258646660089,-10.5001535416,-5.09779119492,1.57040977478
1607254258651449918,-10.5029716492,-5.09773254395,1.57088363171
1607254258656439065,-10.5057611465,-5.09767961502,1.57135784626
1607254258662178039,-10.509021759,-5.09779500961,1.57073926926
1607254258666492938,-10.5117321014,-5.09778165817,1.57116508484
1607254258671658039,-10.5144348145,-5.09775352478,1.57157516479
1607254258677086114,-10.517080307,-5.09774684906,1.57197642326
1607254258681642055,-10.5196857452,-5.09774780273,1.57236778736
1607254258686495065,-10.5222826004,-5.09773778915,1.57274317741
1607254258695611000,-10.5248374939,-5.09773826599,1.57310962677
1607254258696600914,-10.5288095474,-5.09678649902,1.57281827927
1607254258701592922,-10.5314159393,-5.09675121307,1.57312500477
1607254258710253000,-10.5339765549,-5.09672498703,1.5734142065
1607254258711714029,-10.5365123749,-5.09669685364,1.57368814945
1607254258716481924,-10.5390462875,-5.09664964676,1.57392334938
1607254258721405029,-10.541557312,-5.09660387039,1.57415175438
1607254258729479074,-10.5448732376,-5.09546852112,1.57385897636
1607254258731477022,-10.5473842621,-5.0953836441,1.57402253151
1607254258736629962,-10.5499067307,-5.09527778625,1.57415997982
1607254258743767023,-10.552400589,-5.09517240524,1.57428228855
1607254258746445894,-10.5548791885,-5.095058918,1.57438623905
1607254258751467943,-10.5573596954,-5.0949306488,1.57445764542
1607254258756724119,-10.5598268509,-5.09479427338,1.57450902462
1607254258762792110,-10.5633525848,-5.09398412704,1.57518064976
1607254258766509056,-10.5658864975,-5.09380960464,1.57515847683
1607254258771543025,-10.5684041977,-5.0936217308,1.57511889935
1607254258777013063,-10.5709218979,-5.09342432022,1.57504987717
1607254258781735897,-10.5734558105,-5.09320735931,1.57496488094
1607254258786770105,-10.5759820938,-5.09298372269,1.5748513937
1607254258795551061,-10.5785102844,-5.09274816513,1.57471311092
1607254258796717882,-10.5828456879,-5.09116363525,1.57531368732
1607254258801913022,-10.5854206085,-5.09086704254,1.57515597343
1607254258811047077,-10.5879955292,-5.09056043625,1.5749745369
1607254258811942100,-10.5905857086,-5.09025287628,1.57476210594
1607254258816828012,-10.5931749344,-5.08993434906,1.57453024387
1607254258821787118,-10.5957727432,-5.08960819244,1.57427477837
1607254258832195043,-10.5983800888,-5.08927440643,1.57399511337
1607254258833287000,-10.6001348495,-5.08796548843,1.57593381405
1607254258836750984,-10.6027565002,-5.08760452271,1.57564067841
1607254258843517065,-10.605386734,-5.08724021912,1.57532048225
1607254258846879959,-10.6080245972,-5.08687496185,1.57494544983
1607254258851807117,-10.6106739044,-5.08650445938,1.57454848289
1607254258861897945,-10.6133317947,-5.08613061905,1.57411646843
1607254258862205028,-10.6180286407,-5.0851187706,1.57515716553
1607254258866909980,-10.6207580566,-5.08472681046,1.5747064352
1607254258871687889,-10.6234989166,-5.08433294296,1.57422780991
1607254258877392053,-10.6262559891,-5.08393955231,1.57376074791
1607254258881757020,-10.6290187836,-5.08354330063,1.57325148582
1607254258886805057,-10.6317911148,-5.08314609528,1.57272231579
1607254258894308090,-10.6345806122,-5.08275699615,1.57218468189
1607254258896769046,-10.6367912292,-5.08167123795,1.5718960762
1607254258901808023,-10.6396093369,-5.08125734329,1.5713173151
1607254258909720897,-10.6424589157,-5.08084964752,1.57070708275
1607254258912030935,-10.6453180313,-5.08044195175,1.5700854063
1607254258916879892,-10.6481962204,-5.08003616333,1.5694437027
1607254258921777963,-10.6510925293,-5.07963228226,1.56878137589
1607254258929199934,-10.6546401978,-5.08059740067,1.56973314285
1607254258931698083,-10.6575737,-5.08023929596,1.56907808781
1607254258936758041,-10.6605234146,-5.07988452911,1.5684068203
1607254258942821979,-10.6635160446,-5.07953882217,1.56771576405
1607254258946862936,-10.666516304,-5.07919359207,1.5670093298
1607254258951859951,-10.6695375443,-5.0788526535,1.56628608704
1607254258962057113,-10.6725950241,-5.07851743698,1.56553339958
1607254258962362051,-10.6758670807,-5.07935190201,1.56795966625
1607254258966888904,-10.6789731979,-5.07905578613,1.56723487377
1607254258972014904,-10.6820983887,-5.07876014709,1.56651723385
1607254258988394975,-10.685254097,-5.07846879959,1.56576693058
1607254258988739967,-10.6884326935,-5.07818078995,1.56500029564
1607254258988991022,-10.6916532516,-5.07788705826,1.56422400475
1607254259000521898,-10.6948957443,-5.07759857178,1.56343114376
1607254259000854969,-10.6975002289,-5.07934808731,1.56649816036
1607254259002039909,-10.7008142471,-5.07912683487,1.56578314304
1607254259010791063,-10.7041559219,-5.07890129089,1.56505131721
1607254259011800050,-10.7075271606,-5.07867956161,1.5643055439
1607254259016840934,-10.7109289169,-5.07846212387,1.56354498863
1607254259028542041,-10.7143859863,-5.0782494545,1.5627784729
1607254259028848886,-10.7189502716,-5.07871198654,1.56347644329
1607254259031835079,-10.7224931717,-5.07852506638,1.56271147728
1607254259036878108,-10.7260808945,-5.07834815979,1.5619456768
1607254259042428016,-10.7296981812,-5.07817316055,1.56116092205
1607254259047045946,-10.7333498001,-5.07800340652,1.56036281586
1607254259051906108,-10.7370405197,-5.07783699036,1.55954885483
1607254259061892986,-10.7407693863,-5.0776758194,1.5587246418
1607254259062199115,-10.7429189682,-5.07897806168,1.56084644794
1607254259066900014,-10.7467088699,-5.07885980606,1.56006681919
1607254259071815967,-10.7505292892,-5.07874536514,1.55928003788
1607254259077277898,-10.7543878555,-5.07863521576,1.55847704411
1607254259081851959,-10.758263588,-5.07853412628,1.55768680573
1607254259086915969,-10.7621850967,-5.07843732834,1.55687940121
1607254259095660924,-10.7661437988,-5.07834672928,1.55606687069
1607254259096821069,-10.7689218521,-5.07883834839,1.55797469616
1607254259101843118,-10.7728977203,-5.07877492905,1.55726611614
1607254259110816001,-10.7769069672,-5.07871723175,1.55656170845
1607254259112061023,-10.7809524536,-5.07866573334,1.55586290359
1607254259116880893,-10.7849845886,-5.07862472534,1.55522489548
1607254259122062921,-10.7890634537,-5.07858896255,1.55457437038
1607254259129616975,-10.7931613922,-5.07856082916,1.5539380312
1607254259131763935,-10.7954807281,-5.07944631577,1.55517756939
1607254259136914014,-10.7995452881,-5.07945680618,1.55468058586
1607254259143564939,-10.8036270142,-5.07947349548,1.55420994759
1607254259146862983,-10.8076858521,-5.07949113846,1.55378675461
1607254259151940107,-10.8117733002,-5.07951688766,1.55338251591
1607254259163233995,-10.815870285,-5.07954788208,1.55300784111
1607254259163546085,-10.8199529648,-5.07959985733,1.55264365673
1607254259166841983,-10.823474884,-5.08021116257,1.55359435081
1607254259171920061,-10.8275499344,-5.08029699326,1.55332124233
1607254259178158044,-10.8316040039,-5.08040523529,1.55309486389
1607254259181977987,-10.8356637955,-5.08051967621,1.55288648605
1607254259187474012,-10.839720726,-5.08064603806,1.55270719528
1607254259196119070,-10.8437280655,-5.08078289032,1.55263602734
1607254259196715116,-10.8450784683,-5.08202266693,1.55503976345
1607254259201792001,-10.8490219116,-5.08221101761,1.55512440205
1607254259220957040,-10.8529491425,-5.08241081238,1.55526196957
1607254259221194028,-10.8568000793,-5.08254051208,1.55547440052
1607254259221270084,-10.860669136,-5.082716465,1.55572807789
1607254259222074031,-10.8645143509,-5.08289241791,1.55603778362
1607254259237565040,-10.8665437698,-5.08470726013,1.55495285988
1607254259237785100,-10.8702764511,-5.08489847183,1.55524218082
1607254259238512992,-10.8739843369,-5.08508586884,1.55556797981
1607254259247391939,-10.8776597977,-5.08528232574,1.55583322048
1607254259247617006,-10.8813180923,-5.08546924591,1.55617141724
1607254259251723051,-10.8849554062,-5.08565378189,1.55652987957
1607254259262141942,-10.8885774612,-5.08585309982,1.55689263344
1607254259262451887,-10.8921737671,-5.08604764938,1.5572783947
1607254259267581939,-10.8955936432,-5.08749246597,1.55771028996
1607254259271994113,-10.8991355896,-5.08776092529,1.55810582638
1607254259277157068,-10.9026470184,-5.08802461624,1.5585180521
1607254259281954050,-10.9061346054,-5.08829498291,1.55894446373
1607254259287030935,-10.909620285,-5.08857250214,1.55933320522
1607254259295459985,-10.9119281769,-5.08909034729,1.55864155293
1607254259296722888,-10.9153585434,-5.08938503265,1.559009552
1607254259302021980,-10.9187765121,-5.0896859169,1.55937492847
1607254259310112953,-10.9221897125,-5.08994865417,1.55959653854
1607254259311817884,-10.9255867004,-5.09023809433,1.55988490582
1607254259316950082,-10.9289703369,-5.09052705765,1.56015193462
1607254259321692943,-10.932305336,-5.09079456329,1.56038677692
1607254259329181909,-10.9350786209,-5.09226703644,1.56206357479
1607254259331773042,-10.9383764267,-5.09254932404,1.56231045723
1607254259337030887,-10.9415893555,-5.09281587601,1.56255233288
1607254259343642950,-10.9448060989,-5.09307956696,1.56276643276
1607254259347258090,-10.9479913712,-5.09333515167,1.56296014786
1607254259352174997,-10.9511089325,-5.09357833862,1.56316661835
1607254259372863054,-10.9541988373,-5.09381437302,1.5633482933
1607254259373284101,-10.9565868378,-5.09520816803,1.5634714365
1607254259373445034,-10.959528923,-5.09546375275,1.56366491318
1607254259373543977,-10.9624290466,-5.09571027756,1.56383919716
1607254259383935928,-10.9652824402,-5.09594869614,1.564011693
1607254259384382009,-10.9680986404,-5.09616184235,1.56417524815
1607254259387083053,-10.9708662033,-5.09636926651,1.56433427334
1607254259397711038,-10.9753112793,-5.09820270538,1.56511378288
1607254259400228023,-10.978064537,-5.09842538834,1.56527781487
1607254259402024984,-10.9807834625,-5.09861850739,1.56539511681
1607254259409456014,-10.9834508896,-5.09880638123,1.56551921368
1607254259412010908,-10.986076355,-5.09897947311,1.56562888622
1607254259416879892,-10.9886703491,-5.09915685654,1.56571352482
1607254259427985906,-10.9912223816,-5.09931612015,1.56578612328
1607254259428411960,-10.9913883209,-5.09951305389,1.56324326992
1607254259431895971,-10.993888855,-5.09970569611,1.56321632862
1607254259437490940,-10.9963226318,-5.09987449646,1.5631608963
1607254259443234920,-10.9987258911,-5.10004043579,1.56308841705
1607254259446845054,-11.0011291504,-5.10020399094,1.5630068779
1607254259452583074,-11.0035018921,-5.1003651619,1.56291162968
1607254259476995944,-11.005856514,-5.10052347183,1.56280493736
1607254259477333068,-11.0082406998,-5.10068130493,1.56268870831
1607254259477442979,-11.0103302002,-5.10145521164,1.56274724007
1607254259480344057,-11.0127220154,-5.10163640976,1.5625975132
1607254259489818096,-11.0151472092,-5.10178852081,1.56242311001
1607254259490310907,-11.0175561905,-5.10194683075,1.56223893166
1607254259490497112,-11.0199689865,-5.10209751129,1.562038064
1607254259503015995,-11.0223836899,-5.10224151611,1.56182134151
1607254259503361940,-11.0250997543,-5.10240745544,1.56066894531
1607254259503477096,-11.0275621414,-5.10254240036,1.56040632725
1607254259513649940,-11.0300321579,-5.10266971588,1.56012880802
1607254259513959884,-11.032538414,-5.10278701782,1.55982100964
1607254259517070055,-11.0350408554,-5.10289764404,1.55950522423
1607254259521898031,-11.0375537872,-5.10299968719,1.55917060375
1607254259529185056,-11.040099144,-5.10309743881,1.55881071091
1607254259531923055,-11.0433998108,-5.10342359543,1.55926179886
1607254259537098884,-11.0460176468,-5.10352134705,1.55888986588
1607254259543662071,-11.0486536026,-5.10363149643,1.55850172043
1607254259546981096,-11.0513067245,-5.10372877121,1.55809545517
1607254259552090883,-11.0539779663,-5.10382270813,1.55767118931
1607254259561953067,-11.0566616058,-5.10394239426,1.55723059177
1607254259562256097,-11.0587682724,-5.10217189789,1.55524671078
1607254259567013025,-11.0614728928,-5.10226392746,1.55474424362
1607254259572069883,-11.0641994476,-5.10241127014,1.55427074432
1607254259577775955,-11.0669412613,-5.10254859924,1.5537661314
1607254259581973075,-11.0697002411,-5.10270118713,1.55325746536
1607254259587076902,-11.072479248,-5.10286951065,1.55273997784
1607254259596110105,-11.0752792358,-5.10309934616,1.55227768421
1607254259596918106,-11.079782486,-5.103536129,1.55119204521
1607254259601774930,-11.0826425552,-5.10381984711,1.55071437359
1607254259609675884,-11.0855455399,-5.10412168503,1.55025923252
1607254259612025022,-11.0884542465,-5.10445022583,1.54980242252
1607254259617079019,-11.091381073,-5.10480213165,1.54935503006
1607254259622014999,-11.0943098068,-5.1051697731,1.54891061783
1607254259629843950,-11.0976057053,-5.10477638245,1.54801547527
1607254259631890058,-11.1005821228,-5.10517549515,1.54757928848
1607254259636900901,-11.1035690308,-5.10556983948,1.54711449146
1607254259643553972,-11.1065769196,-5.10599279404,1.54666209221
1607254259647032976,-11.1096000671,-5.10643148422,1.5462064743
